t_ms,packet_id,speed_kmh,steer,gas,brake,gear,rpms,heading,pitch,roll,accg_x,accg_y,accg_z
76088.829,10,0.0185881145298481,0.0,0.0,1.0,1,7,-0.23861180245876312,0.07499861717224121,-0.05404027923941612,0.00019162739044986665,-0.00010429855319671333,0.00018495360563974828
76099.658,14,0.018509458750486374,0.0,0.0,1.0,1,7,-0.23861141502857208,0.07500173896551132,-0.054041557013988495,-6.970403774175793e-05,1.6755857359385118e-05,0.00018775746866595
76128.459,23,0.01837240904569626,0.0,0.0,1.0,1,7,-0.23861180245876312,0.0750083401799202,-0.05404214933514595,0.0003113108978141099,0.00016619513917248696,0.00013786186173092574
76139.138,27,0.018269462510943413,0.0,0.0,1.0,1,7,-0.23861217498779297,0.07501090317964554,-0.054041195660829544,0.0004065662797074765,0.000294189085252583,0.00021669230773113668
76155.655,32,0.018101800233125687,0.0,0.0,1.0,1,7,-0.23861218988895416,0.07501384615898132,-0.05403980240225792,-0.0002275221486343071,0.0006735146744176745,0.00020657583081629127
76168.468,36,0.018007060512900352,0.0,0.0,1.0,1,7,-0.23861157894134521,0.07501647621393204,-0.05403862148523331,-0.0003166379174217582,-0.0010683595901355147,0.000491668819449842
76179.471,40,0.017964551225304604,0.0,0.0,1.0,1,7,-0.23861092329025269,0.07501905411481857,-0.05403810366988182,-7.7687123848591e-05,0.001031579333357513,-0.00012769250315614045
76196.435,46,0.017961302772164345,0.0,0.0,1.0,1,7,-0.23861047625541687,0.07502264529466629,-0.054038677364587784,-0.00034117468749172986,0.0005154900718480349,-2.5627932700444944e-05
76206.645,49,0.017955493181943893,0.0,0.0,1.0,1,7,-0.23861032724380493,0.07502438873052597,-0.05403902754187584,9.30536916712299e-05,0.0005908735329285264,-9.56337244133465e-05
76217.153,53,0.01795344613492489,0.0,0.0,1.0,1,7,-0.23860995471477509,0.07502657175064087,-0.05403977632522583,0.0002781755174510181,0.0005413152975961566,-0.00011476843792479485
76227.799,56,0.017954353243112564,0.0,0.0,1.0,1,7,-0.23860962688922882,0.07502809166908264,-0.05404036119580269,-4.6235629270086065e-05,8.552152576157823e-05,1.7242724425159395e-05
76238.299,60,0.017880074679851532,0.0,0.0,1.0,1,7,-0.2386094629764557,0.07502967864274979,-0.054040733724832535,-0.0001616982335690409,0.0005261525511741638,9.880855213850737e-05
76248.824,63,0.017807941883802414,0.0,0.0,1.0,1,7,-0.23860952258110046,0.07503063976764679,-0.0540408156812191,0.00046487548388540745,0.00010267560719512403,0.0002266858209623024
76259.335,67,0.017699623480439186,0.0,0.0,1.0,1,7,-0.23860938847064972,0.07503178715705872,-0.05404134467244148,-6.863827729830518e-05,0.001284913974814117,9.488358773523942e-05
76269.866,70,0.017622342333197594,0.0,0.0,1.0,1,7,-0.23860915005207062,0.0750325471162796,-0.05404169484972954,-0.00052589550614357,0.00028469704557210207,0.00024819510872475803
76280.356,74,0.017510782927274704,0.0,0.0,1.0,1,7,-0.23860885202884674,0.07503347843885422,-0.054042186588048935,5.360068826121278e-05,0.0009756169747561216,0.000192135528777726
76290.900,77,0.01746487431228161,0.0,0.0,1.0,1,7,-0.23860879242420197,0.07503421604633331,-0.054043009877204895,0.00013494993618223816,0.0004114329640287906,5.491555202752352e-05
76301.407,81,0.01741424761712551,0.0,0.0,1.0,1,7,-0.23860880732536316,0.07503524422645569,-0.0540444478392601,-0.00020680786110460758,0.0005063044372946024,2.5381244995514862e-05
76311.938,84,0.017396176233887672,0.0,0.0,1.0,1,7,-0.2386087328195572,0.0750359371304512,-0.05404531583189964,-0.0001455859892303124,0.0005167623166926205,3.9353959436994046e-05
76322.062,88,0.017391640692949295,0.0,0.0,1.0,1,7,-0.2386084645986557,0.07503657788038254,-0.054046567529439926,7.106959674274549e-05,0.0010705648455768824,-6.285669223871082e-05
76332.610,91,0.01738003082573414,0.0,0.0,1.0,1,7,-0.23860827088356018,0.07503689080476761,-0.054047469049692154,0.00028840088634751737,0.00027425194275565445,-3.687914795591496e-05
76343.141,95,0.01736574061214924,0.0,0.0,1.0,1,7,-0.23860830068588257,0.07503727823495865,-0.05404847115278244,0.0002530578931327909,0.000523722788784653,-8.216134119720664e-06
76357.985,100,0.01734507642686367,0.0,0.0,1.0,1,7,-0.23860861361026764,0.07503779977560043,-0.054049018770456314,-9.388104808749631e-05,-0.00012863239680882543,5.42277266504243e-05
76376.686,106,0.0173338633030653,0.0,0.0,1.0,1,7,-0.23860891163349152,0.07503841817378998,-0.05404932051897049,5.638598850055132e-06,-0.0003240641672164202,1.9021426851395518e-05
76387.210,110,0.017336389049887657,0.0,0.0,1.0,1,7,-0.23860904574394226,0.07503879815340042,-0.0540495403110981,0.00012716300261672586,-0.00046316286898218095,1.9862684439431177e-06
76397.714,113,0.017348090186715126,0.0,0.0,1.0,1,7,-0.2386089563369751,0.07503906637430191,-0.05404933914542198,0.00037103064823895693,-0.000526110699865967,-3.338494207127951e-05
76408.271,117,0.017370179295539856,0.0,0.0,1.0,1,7,-0.23860862851142883,0.07503926008939743,-0.05404862016439438,0.00035313962143845856,-0.00039155303966253996,-4.767559948959388e-05
76418.749,120,0.017366401851177216,0.0,0.0,1.0,1,7,-0.2386084496974945,0.07503935694694519,-0.05404754728078842,0.0003235319454688579,-0.0002979906275868416,8.546849130652845e-05
76429.370,124,0.017319103702902794,0.0,0.0,1.0,1,7,-0.2386084347963333,0.0750395804643631,-0.054045841097831726,7.922167424112558e-05,0.0004128465079702437,0.00011005743726855144
76439.952,127,0.01726587861776352,0.0,0.0,1.0,1,7,-0.23860852420330048,0.0750398263335228,-0.054044682532548904,-0.0004887237446382642,0.0005996436229906976,0.0001306069316342473
76450.571,131,0.017234859988093376,0.0,0.0,1.0,1,7,-0.23860858380794525,0.07504011690616608,-0.054043177515268326,-0.00045375528861768544,0.0005464684218168259,1.9384153347346e-05
76461.182,136,0.01724034734070301,0.0,0.0,1.0,1,7,-0.23860856890678406,0.07504035532474518,-0.054042279720306396,0.0001528794236946851,5.855529889231548e-05,-4.403586717671715e-05
76480.724,141,0.017257822677493095,0.0,0.0,1.0,1,7,-0.23860855400562286,0.07504057884216309,-0.05404235050082207,-0.00033931463258340955,-5.637940193992108e-05,3.0480845452984795e-05
76491.549,144,0.017260044813156128,0.0,0.0,1.0,1,7,-0.23860841989517212,0.07504068315029144,-0.05404255911707878,-0.00041978308581747115,0.00014097680104896426,2.4338394723599777e-05
76501.934,148,0.016979388892650604,0.0,0.0,1.0,1,7,-0.23860788345336914,0.0750410258769989,-0.054043419659137726,0.00046455487608909607,0.00019191835599485785,0.000872382428497076
76512.453,151,0.01669945754110813,0.0,0.0,1.0,1,7,-0.2386074662208557,0.07504156976938248,-0.05404428392648697,8.296387386508286e-05,0.0001443563960492611,0.0007817546720616519
76522.962,155,0.01649932749569416,0.0,0.0,1.0,1,6,-0.23860718309879303,0.07504255324602127,-0.05404471233487129,-0.00024158420274034142,-2.239550303784199e-05,0.0002807652053888887
76533.492,158,0.01651620864868164,0.0,0.0,1.0,1,6,-0.23860704898834229,0.07504331320524216,-0.05404466763138771,0.000143000201205723,-0.00023419299395754933,-0.00019149991567246616
76544.015,162,0.016647620126605034,0.0,0.0,1.0,1,6,-0.23860692977905273,0.07504403591156006,-0.05404480919241905,0.0002917065576184541,-0.00011186300980625674,-0.0003886625054292381
76554.541,165,0.016791503876447678,0.0,0.0,1.0,1,6,-0.2386070191860199,0.07504419982433319,-0.05404482036828995,-4.091692062502261e-06,0.0004238760157022625,-0.0004972952301613986
76565.054,169,0.01695880852639675,0.0,0.0,1.0,1,6,-0.2386072278022766,0.07504405826330185,-0.05404457449913025,-9.512694668956101e-05,0.00030079431599006057,-0.00036935240495949984
76575.622,172,0.017036758363246918,0.0,0.0,1.0,1,6,-0.23860715329647064,0.07504377514123917,-0.05404449626803398,-0.00020064343698322773,2.063537249341607e-05,-0.00017452002794016153
76586.139,176,0.017057813704013824,0.0,0.0,1.0,1,6,-0.23860688507556915,0.07504335790872574,-0.054044678807258606,-9.48695233091712e-05,0.00025224240380339324,9.052760287886485e-05
76596.788,179,0.01702689193189144,0.0,0.0,1.0,1,6,-0.2386067658662796,0.07504313439130783,-0.05404513329267502,-6.979247700655833e-05,0.0003097289300058037,9.001819125842303e-05
76607.241,183,0.016951143741607666,0.0,0.0,1.0,1,6,-0.2386067807674408,0.07504301518201828,-0.05404600128531456,8.154474016919266e-06,0.00011756545427488163,0.00022873208217788488
76617.756,186,0.016896991059184074,0.0,0.0,1.0,1,6,-0.238606795668602,0.0750429555773735,-0.05404672399163246,-0.00019697516108863056,0.00045571906957775354,0.00010273963562212884
76628.277,190,0.016839338466525078,0.0,0.0,1.0,1,6,-0.23860657215118408,0.07504282146692276,-0.05404746159911156,5.911773405387066e-05,-4.658459147321992e-06,0.00018641339556779712
76638.801,193,0.016804909333586693,0.0,0.0,1.0,1,6,-0.23860642313957214,0.07504276931285858,-0.054047971963882446,0.0003002165467478335,0.00029049941804260015,3.946531796827912e-05
76649.319,197,0.016797246411442757,0.0,0.0,1.0,1,6,-0.23860643804073334,0.07504263520240784,-0.05404864624142647,4.6311572077684104e-05,0.0001613305794307962,4.6062038450145337e-07
76659.853,200,0.016796747222542763,0.0,0.0,1.0,1,6,-0.2386065274477005,0.07504246383905411,-0.05404873564839363,-4.524609903455712e-05,-0.00013228766329120845,-9.40224708756432e-06
76670.363,204,0.016817009076476097,0.0,0.0,1.0,1,6,-0.23860666155815125,0.07504221796989441,-0.054048553109169006,9.990712715080008e-05,0.0002776192268356681,-7.529385038651526e-05
76680.895,207,0.01683066040277481,0.0,0.0,1.0,1,6,-0.238606795668602,0.07504197955131531,-0.05404847487807274,0.00010572887549642473,-0.0002787127741612494,-5.387459896155633e-05
76691.412,211,0.01684875227510929,0.0,0.0,1.0,1,6,-0.2386070191860199,0.07504168897867203,-0.05404840037226677,-0.0001838463358581066,-0.0004816566361114383,-2.43847807723796e-05
76701.928,215,0.016863727942109108,0.0,0.0,1.0,1,6,-0.23860721290111542,0.07504141330718994,-0.05404802784323692,8.506898302584887e-05,-0.000267136754700914,-2.366993976465892e-05
76712.506,218,0.01686897687613964,0.0,0.0,1.0,1,6,-0.23860718309879303,0.07504112273454666,-0.0540476068854332,0.00041708876960910857,-0.00032209648634307086,-4.480490315472707e-05
76723.023,222,0.016877202317118645,0.0,0.0,1.0,1,6,-0.23860694468021393,0.07504057139158249,-0.05404673516750336,0.00029328855453059077,-0.0004395658033899963,-2.293185389135033e-05
76733.538,225,0.01686175912618637,0.0,0.0,1.0,1,6,-0.2386067807674408,0.07504008710384369,-0.054045721888542175,0.00010676810052245855,-0.0002999023417942226,6.92112444085069e-05
76744.054,229,0.016800135374069214,0.0,0.0,1.0,1,6,-0.23860660195350647,0.07503972947597504,-0.054043903946876526,2.2565067411051132e-05,5.9376307035563514e-05,0.00015118966985028237
76754.586,232,0.016766052693128586,0.0,0.0,1.0,1,6,-0.23860642313957214,0.07503971457481384,-0.054042596369981766,-0.00011611982336034998,0.0005628734361380339,8.257696754299104e-05
76765.144,236,0.016766415908932686,0.0,0.0,1.0,1,6,-0.2386064976453781,0.07503992319107056,-0.05404141917824745,-0.0005217258585616946,0.0002498029207345098,-8.976232493296266e-06
76775.654,239,0.016792505979537964,0.0,0.0,1.0,1,6,-0.23860673606395721,0.07504020631313324,-0.05404077470302582,-0.00030321147642098367,0.00036147882929071784,-7.700752757955343e-05
76786.201,242,0.016842568293213844,0.0,0.0,1.0,1,6,-0.23860692977905273,0.07504041492938995,-0.05404045432806015,-3.561962876119651e-05,0.00017815266619436443,-0.00018918754358310252
76796.734,246,0.01691434159874916,0.0,0.0,1.0,1,6,-0.23860697448253632,0.07504042983055115,-0.05404050275683403,4.070142313139513e-05,-2.6042131139547564e-05,-0.0001747813366819173
76807.298,250,0.016950499266386032,0.0,0.0,1.0,1,6,-0.23860685527324677,0.07504014670848846,-0.054041024297475815,-0.0003128096286673099,-7.558368088211864e-05,-1.6361997040803544e-05
76817.893,253,0.01695568487048149,0.0,0.0,1.0,1,6,-0.23860658705234528,0.07503975927829742,-0.05404144898056984,-0.00025636516511440277,0.00018491721129976213,1.3855121324013453e-05
76828.414,257,0.01692356914281845,0.0,0.0,1.0,1,6,-0.2386060357093811,0.0750390961766243,-0.054042406380176544,2.584498020041792e-07,0.0002574087993707508,0.00011575789540074766
76838.935,260,0.016883473843336105,0.0,0.0,1.0,1,6,-0.23860572278499603,0.07503866404294968,-0.05404321849346161,0.0002080230478895828,0.00034762860741466284,0.00012490928929764777
76849.498,264,0.016832124441862106,0.0,0.0,1.0,1,6,-0.23860561847686768,0.07503817975521088,-0.054044146090745926,0.00019140355288982391,-9.941777534550056e-05,8.528617036063224e-05
76859.996,267,0.01680777035653591,0.0,0.0,1.0,1,6,-0.23860563337802887,0.07503785192966461,-0.05404458940029144,9.389565093442798e-06,-0.00033794966293498874,6.18644553469494e-05
76870.500,271,0.01678028516471386,0.0,0.0,1.0,1,6,-0.23860566318035126,0.07503754645586014,-0.05404459312558174,0.00015857574180699885,-0.0002336500765522942,1.9083739971392788e-05
76880.921,274,0.016776595264673233,0.0,0.0,1.0,1,6,-0.23860573768615723,0.07503751665353775,-0.054044585675001144,0.0003384675073903054,-0.00010317776468582451,-3.8839927583467215e-05
76891.490,278,0.01679467223584652,0.0,0.0,1.0,1,6,-0.23860569298267365,0.0750376433134079,-0.05404457822442055,-0.00010255941015202552,0.00010338496940676123,-4.985195482731797e-05
76902.037,281,0.016818949952721596,0.0,0.0,1.0,1,6,-0.23860539495944977,0.0750376433134079,-0.05404436215758324,-0.00018788357556331903,0.00024071325606200844,-5.729031909140758e-05
76912.546,285,0.016840090975165367,0.0,0.0,1.0,1,6,-0.23860514163970947,0.07503745704889297,-0.05404440686106682,-5.883816265850328e-05,0.0007724823080934584,-6.126183870946988e-05
76922.998,288,0.016875069588422775,0.0,0.0,1.0,1,6,-0.23860515654087067,0.07503727078437805,-0.05404454469680786,6.537278386531398e-05,0.0003954412241000682,-0.00010711830691434443
76933.520,292,0.016882868483662605,0.0,0.0,1.0,1,6,-0.23860518634319305,0.07503708451986313,-0.0540449284017086,-5.978766057523899e-05,0.0004969854489900172,-4.6145451051415876e-05
76943.602,295,0.016891777515411377,0.0,0.0,1.0,1,6,-0.23860512673854828,0.07503698021173477,-0.05404521897435188,-0.0002563206071499735,0.0004577141080517322,7.549620931968093e-06
76954.184,299,0.01688799075782299,0.0,0.0,1.0,1,6,-0.2386050671339035,0.07503680884838104,-0.05404578521847725,-0.00013503585068974644,1.3717247384192888e-05,2.5233413907699287e-05
76964.688,302,0.016872787848114967,0.0,0.0,1.0,1,6,-0.2386050969362259,0.07503673434257507,-0.05404634773731232,2.4343653421965428e-05,-0.0001814669230952859,5.143934322404675e-05
76975.073,306,0.01686604879796505,0.0,0.0,1.0,1,6,-0.23860520124435425,0.07503663003444672,-0.054046958684921265,0.00037718689418397844,0.0004776909772772342,-1.568036896060221e-05
76985.817,309,0.016866561025381088,0.0,0.0,1.0,1,6,-0.23860518634319305,0.0750364288687706,-0.054047271609306335,0.00022142822854220867,0.00033803153201006353,-2.5405224732821807e-05
76996.141,313,0.016858432441949844,0.0,0.0,1.0,1,6,-0.23860518634319305,0.07503612339496613,-0.05404721200466156,-5.285027145873755e-05,-2.796286207740195e-05,1.4242797988117673e-05
77006.747,316,0.01684769243001938,0.0,0.0,1.0,1,6,-0.23860524594783783,0.07503588497638702,-0.05404684320092201,0.00012251909356564283,6.126824882812798e-05,3.160540290991776e-05
77023.760,322,0.016833480447530746,0.0,0.0,1.0,1,6,-0.2386055588722229,0.07503525912761688,-0.0540461391210556,-1.840687582443934e-05,-0.00020643712196033448,1.6514946764800698e-05
77034.995,325,0.016829118132591248,0.0,0.0,1.0,1,6,-0.23860566318035126,0.07503488659858704,-0.05404559150338173,-4.202486525173299e-05,-0.00038591292104683816,9.501795830146875e-06
77045.337,329,0.01682066172361374,0.0,0.0,1.0,1,6,-0.23860576748847961,0.07503431290388107,-0.054044730961322784,0.00012144132051616907,-0.0005517745739780366,2.9291366445249878e-05
77055.858,332,0.016803434118628502,0.0,0.0,1.0,1,6,-0.2386058121919632,0.07503378391265869,-0.05404402315616608,0.0002512155915610492,-0.00018985274073202163,3.585916419979185e-05
77066.377,336,0.01675870083272457,0.0,0.0,1.0,1,6,-0.2386055588722229,0.07503306120634079,-0.05404319986701012,-0.00018972656107507646,7.386094512185082e-05,0.00014129746705293655
77076.966,339,0.016733836382627487,0.0,0.0,1.0,1,6,-0.23860517144203186,0.0750327929854393,-0.054042283445596695,-0.00021615535661112517,0.0004795258864760399,8.426055137533695e-05
77087.471,343,0.01674213446676731,0.0,0.0,1.0,1,6,-0.23860490322113037,0.07503294944763184,-0.05404115095734596,0.00022287765750661492,-2.8508531613624655e-05,-7.959298091009259e-05
77098.002,347,0.016786985099315643,0.0,0.0,1.0,1,6,-0.23860500752925873,0.07503348588943481,-0.05404042825102806,-0.00011932111374335364,-4.0692262700758874e-05,-0.00013915864110458642
77108.518,350,0.016841573640704155,0.0,0.0,1.0,1,6,-0.23860521614551544,0.07503390312194824,-0.05403991416096687,-0.0005398426437750459,0.00016740137652959675,-0.00016203468840103596
77119.064,353,0.01691245473921299,0.0,0.0,1.0,1,6,-0.2386053502559662,0.07503407448530197,-0.05403928831219673,-0.00020116730593144894,0.00022730791533831507,-0.00019435705326031893
77129.781,357,0.016990071162581444,0.0,0.0,1.0,1,6,-0.2386052906513214,0.07503387331962585,-0.054039012640714645,0.00022541548241861165,4.808310768567026e-05,-0.00015316020289901644
77141.722,361,0.017007187008857727,0.0,0.0,1.0,1,6,-0.2386050969362259,0.07503336668014526,-0.05403965339064598,-0.0003634935128502548,0.0001108840515371412,5.3195879445411265e-05
77152.722,365,0.01696624979376793,0.0,0.0,1.0,1,6,-0.23860476911067963,0.0750327855348587,-0.05404045805335045,-0.0006098285666666925,-1.8537269852458849e-06,0.0002422079414827749
77163.213,368,0.016908759251236916,0.0,0.0,1.0,1,6,-0.2386045902967453,0.0750323161482811,-0.054041147232055664,0.00011389189603505656,0.00021187298989389092,0.00016028160462155938
77173.739,372,0.01683756522834301,0.0,0.0,1.0,1,6,-0.23860450088977814,0.07503156363964081,-0.05404256284236908,0.0005715527222491801,6.276481144595891e-05,0.00010932274744845927
77184.265,375,0.01678415760397911,0.0,0.0,1.0,1,6,-0.23860447108745575,0.07503088563680649,-0.05404360592365265,-4.293929669074714e-05,-6.900193693581969e-05,0.00016953876183833927
77194.761,379,0.016721675172448158,0.0,0.0,1.0,1,6,-0.23860442638397217,0.07502993941307068,-0.05404411628842354,-0.00017951418703887612,9.200341082760133e-06,0.0001458944461774081
77205.285,382,0.016674799844622612,0.0,0.0,1.0,1,5,-0.23860441148281097,0.07502935081720352,-0.05404442921280861,0.00033213497954420745,-2.0388375560287386e-05,8.627315401099622e-05
77215.809,386,0.016656043007969856,0.0,0.0,1.0,1,5,-0.2386043220758438,0.07502888143062592,-0.05404527485370636,-9.725953532324638e-06,8.344108209712431e-05,-1.9996129196897527e-07
77226.340,389,0.016674982383847237,0.0,0.0,1.0,1,5,-0.23860417306423187,0.07502874732017517,-0.05404575541615486,-0.00035902377567254007,-7.577647920697927e-05,-1.0827174264704809e-05
77236.897,393,0.016728723421692848,0.0,0.0,1.0,1,5,-0.23860403895378113,0.07502884417772293,-0.054046016186475754,0.00020113802747800946,-1.4843581993773114e-05,-0.0001747502392390743
77247.423,395,0.016792133450508118,0.0,0.0,1.0,1,5,-0.23860400915145874,0.07502903789281845,-0.05404621735215187,0.0005951217608526349,0.0001330331724602729,-0.00028522638604044914
77257.913,399,0.016885442659258842,0.0,0.0,1.0,1,5,-0.2386038452386856,0.07502932846546173,-0.05404626950621605,8.194777910830453e-05,0.00018526763597037643,-0.00026641724980436265
77268.429,402,0.016935236752033234,0.0,0.0,1.0,1,5,-0.23860356211662292,0.07502952218055725,-0.05404586344957352,-0.0002397789212409407,0.00016327189223375171,-0.00010528689017519355
77279.019,406,0.016991255804896355,0.0,0.0,1.0,1,5,-0.23860333859920502,0.07502956688404083,-0.0540454275906086,-0.0003282421384938061,0.00017461464449297637,-9.018556011142209e-05
77289.530,409,0.017011864110827446,0.0,0.0,1.0,1,5,-0.2386033535003662,0.07502947747707367,-0.054045286029577255,2.009774334510439e-06,2.435873057038407e-06,-3.859868593281135e-05
77300.034,413,0.016988283023238182,0.0,0.0,1.0,1,5,-0.2386033684015274,0.07502927631139755,-0.05404547229409218,-2.432855217193719e-05,0.0002864264533855021,7.349481893470511e-05
77310.553,416,0.016959648579359055,0.0,0.0,1.0,1,5,-0.23860345780849457,0.07502920925617218,-0.05404550954699516,6.043733446858823e-05,-4.444384103408083e-05,0.00011143166193505749
77321.078,420,0.016913631930947304,0.0,0.0,1.0,1,5,-0.23860372602939606,0.07502928376197815,-0.0540456585586071,-3.3352927857777104e-05,-0.00014370761346071959,0.00011834268661914393
77331.704,423,0.016892025247216225,0.0,0.0,1.0,1,5,-0.23860396444797516,0.07502932846546173,-0.05404570698738098,-5.5518677982036024e-05,0.0002915825753007084,8.241580508183688e-05
77342.209,427,0.01687639020383358,0.0,0.0,1.0,1,5,-0.23860402405261993,0.07502927631139755,-0.05404526740312576,0.0004022622888442129,-0.00011227489449083805,-1.8469940187060274e-05
77352.763,430,0.016868863254785538,0.0,0.0,1.0,1,5,-0.23860391974449158,0.07502907514572144,-0.054044853895902634,0.0003918303700629622,-0.00020558852702379227,-2.3336489903158508e-05
77363.546,434,0.01685984805226326,0.0,0.0,1.0,1,5,-0.23860397934913635,0.07502851635217667,-0.05404399335384369,-0.00015805839211679995,-0.00016578387294430286,3.535223368089646e-05
77373.920,437,0.016843175515532494,0.0,0.0,1.0,1,5,-0.23860423266887665,0.07502786070108414,-0.054042842239141464,-6.920773012097925e-05,-0.0003474858240224421,7.175660721259192e-05
77384.408,441,0.016782909631729126,0.0,0.0,1.0,1,5,-0.23860450088977814,0.07502690702676773,-0.054041724652051926,1.0103275599249173e-05,9.615327144274488e-05,0.0001304042525589466
77395.024,444,0.016743486747145653,0.0,0.0,1.0,1,5,-0.23860439658164978,0.07502636313438416,-0.05404134839773178,-0.000523559981957078,-1.6609490558039397e-05,0.00016416615108028054
77405.567,448,0.016695670783519745,0.0,0.0,1.0,1,5,-0.2386040836572647,0.07502604275941849,-0.05404098704457283,-0.00035387446405366063,-0.00010323390597477555,0.00011590500798774883
77416.087,452,0.016708895564079285,0.0,0.0,1.0,1,5,-0.23860396444797516,0.07502618432044983,-0.05404095724225044,0.0005791511503048241,0.0001118568834499456,-0.00015234953025355935
77426.694,455,0.016759343445301056,0.0,0.0,1.0,1,5,-0.23860396444797516,0.0750264972448349,-0.054041147232055664,0.00036341033410280943,-0.0001023100849124603,-0.00023141526617109776
77436.825,458,0.016832774505019188,0.0,0.0,1.0,1,5,-0.23860391974449158,0.07502693682909012,-0.05404101684689522,-0.0002408186992397532,-0.00026982181589119136,-0.0002276740997331217
77446.938,462,0.016937334090471268,0.0,0.0,1.0,1,5,-0.23860369622707367,0.07502741366624832,-0.054040100425481796,1.4861267118249089e-05,4.703882586909458e-05,-0.0002393122122157365
77457.642,465,0.01700848527252674,0.0,0.0,1.0,1,5,-0.23860345780849457,0.07502742111682892,-0.054039593786001205,0.00029384149820543826,-4.2289124394301325e-05,-0.0002269917749799788
77468.100,469,0.017033953219652176,0.0,0.0,1.0,1,5,-0.23860318958759308,0.07502700388431549,-0.05403962358832359,-0.0003883235913235694,0.000299170525977388,3.056598870898597e-05
77478.613,472,0.01702653430402279,0.0,0.0,1.0,1,5,-0.23860298097133636,0.07502652704715729,-0.054039571434259415,-0.0007036611204966903,0.00019401111057959497,0.00013926996325608343
77489.139,476,0.016956329345703125,0.0,0.0,1.0,1,5,-0.23860272765159607,0.075025774538517,-0.05403977259993553,4.882780194748193e-05,-0.00017518538516014814,0.00018762961553875357
77499.679,480,0.016865169629454613,0.0,0.0,1.0,1,5,-0.23860274255275726,0.07502510398626328,-0.05404084175825119,0.00021945864136796445,-0.0001868742983788252,0.00019433263514656574
77510.267,483,0.01680392399430275,0.0,0.0,1.0,1,5,-0.2386029213666916,0.07502469420433044,-0.05404173582792282,-0.00020147787290625274,6.773234053980559e-05,0.00020861890516243875
77520.738,486,0.01675385981798172,0.0,0.0,1.0,1,5,-0.23860308527946472,0.07502427697181702,-0.05404249206185341,-0.0004062956140842289,3.691838719532825e-05,0.00021302470122464
77531.240,490,0.01669798605144024,0.0,0.0,1.0,1,5,-0.2386031150817871,0.07502363622188568,-0.05404331535100937,0.00041469812276773155,0.00025893872953020036,5.053906352259219e-05
77541.807,494,0.01668957993388176,0.0,0.0,1.0,1,5,-0.2386029064655304,0.07502301782369614,-0.05404477193951607,1.303032877331134e-05,0.0003004989121109247,-7.82157076173462e-06
77552.329,497,0.01669512502849102,0.0,0.0,1.0,1,5,-0.23860272765159607,0.0750226229429245,-0.054045598953962326,-0.0003516295982990414,0.0004004075890406966,3.2914870189415524e-06
77562.778,500,0.01671697199344635,0.0,0.0,1.0,1,5,-0.2386026531457901,0.07502234727144241,-0.05404602736234665,0.00015618007455486804,0.00026271413662470877,-9.907803905662149e-05
77573.349,504,0.016770297661423683,0.0,0.0,1.0,1,5,-0.23860271275043488,0.0750221312046051,-0.054046787321567535,0.0004408638924360275,-0.00015173156862147152,-0.00017559889238327742
77583.891,507,0.016805918887257576,0.0,0.0,1.0,1,5,-0.23860274255275726,0.07502216845750809,-0.05404726415872574,5.2975981816416606e-05,-7.707857002969831e-05,-0.0001370433164993301
77594.472,511,0.016873478889465332,0.0,0.0,1.0,1,5,-0.23860260844230652,0.07502252608537674,-0.054047320038080215,-0.0002319166815141216,1.9423045159783214e-05,-0.00013171779573895037
77604.622,515,0.016939599066972733,0.0,0.0,1.0,1,5,-0.23860232532024384,0.07502306252717972,-0.05404719337821007,0.0002568586205597967,4.20321557612624e-05,-0.00020259003213141114
77615.098,518,0.016992202028632164,0.0,0.0,1.0,1,5,-0.23860199749469757,0.07502341270446777,-0.0540471151471138,0.00041935627814382315,-6.0324051446514204e-05,-0.00017915063654072583
77625.615,521,0.017029304057359695,0.0,0.0,1.0,1,5,-0.2386016845703125,0.07502362877130508,-0.05404706299304962,-2.7299556677462533e-05,6.454157846746966e-05,-9.597934695193544e-05
77636.118,525,0.017044562846422195,0.0,0.0,1.0,1,5,-0.23860155045986176,0.07502371072769165,-0.054046690464019775,-0.00036528613418340683,-8.493558561895043e-05,8.687785157235339e-05
77646.686,529,0.017024196684360504,0.0,0.0,1.0,1,5,-0.23860180377960205,0.07502370327711105,-0.05404609069228172,0.00019959785277023911,0.00017324442160315812,4.679387348005548e-05
77657.158,532,0.017002062872052193,0.0,0.0,1.0,1,5,-0.23860208690166473,0.07502377033233643,-0.05404581502079964,0.00044374592835083604,8.300162880914286e-05,4.8831016101758e-06
77667.677,536,0.016960283741354942,0.0,0.0,1.0,1,5,-0.23860232532024384,0.07502389699220657,-0.05404531583189964,-0.00013613469491247088,-0.0002504139847587794,0.00011106644524261355
77678.252,539,0.016927728429436684,0.0,0.0,1.0,1,5,-0.23860248923301697,0.07502393424510956,-0.05404452234506607,-0.00010915358870988712,-5.8151297707809135e-05,0.00010524051322136074
77688.760,543,0.016894912347197533,0.0,0.0,1.0,1,5,-0.23860269784927368,0.07502363622188568,-0.054043158888816833,0.00042514983215369284,-0.00023339643666986376,1.085205531126121e-05
77699.328,546,0.016866225749254227,0.0,0.0,1.0,1,5,-0.23860283195972443,0.07502307742834091,-0.054042115807533264,0.0003322104166727513,-0.00030328374123200774,8.634912228444591e-05
77709.874,550,0.01679106242954731,0.0,0.0,1.0,1,5,-0.2386028915643692,0.07502220571041107,-0.0540408156812191,-0.00041743769543245435,2.280995795445051e-05,0.0002190571976825595
77720.389,553,0.016744131222367287,0.0,0.0,1.0,1,5,-0.23860274255275726,0.07502170652151108,-0.05403999239206314,-0.000823250855319202,0.00011059648386435583,0.00020270593813620508
77730.901,556,0.01671774499118328,0.0,0.0,1.0,1,5,-0.23860257863998413,0.0750214233994484,-0.05403957888484001,-0.0004746461636386812,0.0001420361513737589,0.00012526355567388237
77741.426,560,0.016708634793758392,0.0,0.0,1.0,1,5,-0.2386024445295334,0.07502133399248123,-0.05404006689786911,8.711915870662779e-05,0.0002721418277360499,-2.2853959308122285e-05
77751.917,564,0.01675284653902054,0.0,0.0,1.0,1,5,-0.2386023998260498,0.07502139359712601,-0.0540408194065094,0.00023863611568231136,6.857676635263488e-05,-0.000168435595696792
77762.474,567,0.01680774800479412,0.0,0.0,1.0,1,5,-0.23860232532024384,0.07502144575119019,-0.05404120311141014,0.00011630208609858528,-5.443258032755693e-06,-0.00019467194215394557
77772.986,571,0.016895845532417297,0.0,0.0,1.0,1,5,-0.2386021614074707,0.07502146810293198,-0.05404143035411835,-3.760078834602609e-05,-0.0003009301144629717,-0.00019997671188320965
77783.706,574,0.01695295423269272,0.0,0.0,1.0,1,5,-0.23860204219818115,0.0750214233994484,-0.05404144152998924,4.515222371992422e-06,-0.0004012428398709744,-0.00016225615399889648
77794.168,578,0.016991926357150078,0.0,0.0,1.0,1,5,-0.2386018931865692,0.07502127438783646,-0.05404147133231163,0.00012515889829955995,-4.063739106641151e-05,-5.600223084911704e-05
77804.787,581,0.016994021832942963,0.0,0.0,1.0,1,5,-0.2386016547679901,0.07502105832099915,-0.05404161289334297,-5.489247996592894e-05,7.929788989713416e-05,2.1869886040803976e-05
77815.263,585,0.0169503316283226,0.0,0.0,1.0,1,5,-0.23860123753547668,0.07502061873674393,-0.05404170975089073,-0.00022154496400617063,0.0002714172878768295,0.00013518276682589203
77825.802,588,0.01691124215722084,0.0,0.0,1.0,1,5,-0.23860114812850952,0.07502029091119766,-0.05404183268547058,6.26412802375853e-05,0.00024361633404623717,0.00010168219159822911
77836.618,592,0.016864154487848282,0.0,0.0,1.0,1,5,-0.23860123753547668,0.07501979917287827,-0.05404229089617729,5.731593773816712e-05,-8.489568426739424e-05,0.00010779388685477898
77846.947,595,0.016818063333630562,0.0,0.0,1.0,1,5,-0.23860126733779907,0.07501936703920364,-0.05404264107346535,-0.0001764884073054418,4.9533540732227266e-05,0.0002085856394842267
77857.546,598,0.016773290932178497,0.0,0.0,1.0,1,5,-0.23860128223896027,0.07501900941133499,-0.05404309928417206,-0.00019383263133931905,0.0002757614420261234,0.00015291545423679054
77868.070,602,0.01674734242260456,0.0,0.0,1.0,1,5,-0.23860129714012146,0.07501870393753052,-0.05404406785964966,-0.00010429868416395038,0.0005365053657442331,7.428447861457244e-05
77878.673,606,0.01675194315612316,0.0,0.0,1.0,1,5,-0.23860113322734833,0.07501836866140366,-0.054045192897319794,8.757635805523023e-05,0.00019992033776361495,-4.989523222320713e-05
77889.233,609,0.016761697828769684,0.0,0.0,1.0,1,5,-0.23860101401805878,0.07501804828643799,-0.054045893251895905,0.0003715817001648247,0.0003272405010648072,-9.855361713562161e-05
77899.871,613,0.016788747161626816,0.0,0.0,1.0,1,5,-0.23860107362270355,0.07501756399869919,-0.05404675379395485,0.00020192406373098493,0.0002862574183382094,-8.831186278257519e-05
77910.411,616,0.0168078001588583,0.0,0.0,1.0,1,5,-0.23860108852386475,0.0750172883272171,-0.05404704809188843,-0.0002506267628632486,1.7992870198213495e-05,-5.0481561629567295e-05
77920.878,619,0.016819678246974945,0.0,0.0,1.0,1,5,-0.23860102891921997,0.07501712441444397,-0.05404704809188843,-2.0017881979583763e-05,3.453493627603166e-05,-3.596547321649268e-05
77931.563,623,0.01684986799955368,0.0,0.0,1.0,1,5,-0.23860087990760803,0.07501708716154099,-0.05404725670814514,9.440391295356676e-05,3.616217145463452e-05,-0.00013139721704646945
77941.970,627,0.016883868724107742,0.0,0.0,1.0,1,5,-0.23860076069831848,0.0750173032283783,-0.054047539830207825,-5.2032879466423765e-05,-0.00015244947280734777,-0.00010052273864857852
77952.488,630,0.016918767243623734,0.0,0.0,1.0,1,5,-0.2386007159948349,0.07501761615276337,-0.05404769629240036,-0.00019848569354508072,-0.00033642310881987214,-0.00010264223965350538
77963.038,634,0.0169693510979414,0.0,0.0,1.0,1,5,-0.23860064148902893,0.07501814514398575,-0.05404781922698021,3.201231447746977e-05,-0.00039473557262681425,-0.00014358838961925358
77973.716,637,0.017017031088471413,0.0,0.0,1.0,1,5,-0.2386004477739334,0.0750185176730156,-0.054047755897045135,0.00035493512405082583,-0.0003258713986724615,-0.0001867221581051126
77984.189,641,0.017044086009263992,0.0,0.0,1.0,1,5,-0.23860011994838715,0.07501892745494843,-0.054047200828790665,0.0005092224455438554,-6.150129047455266e-05,-7.964977703522891e-05
77994.744,644,0.017051996663212776,0.0,0.0,1.0,1,5,-0.23860016465187073,0.07501912862062454,-0.05404653400182724,0.00010760059376480058,0.0001668660988798365,-3.356625893502496e-05
78005.245,648,0.01704210601747036,0.0,0.0,1.0,1,5,-0.23860067129135132,0.07501907646656036,-0.05404498428106308,-0.00020390882855281234,0.00012916792184114456,8.528250327799469e-05
78015.779,651,0.017012277618050575,0.0,0.0,1.0,1,4,-0.23860108852386475,0.07501883059740067,-0.054043471813201904,1.7174059394164942e-05,-0.00018730130977928638,8.567565237171948e-05
78026.314,655,0.016949418932199478,0.0,0.0,1.0,1,4,-0.2386014610528946,0.07501835376024246,-0.054041583091020584,0.0003341725969221443,-0.0003497133729979396,0.0001833815622376278
78036.822,658,0.016866816207766533,0.0,0.0,1.0,1,4,-0.23860159516334534,0.07501808553934097,-0.05404076725244522,-0.0003111672995146364,-0.00017564103472977877,0.00026844776584766805
78047.346,662,0.016785476356744766,0.0,0.0,1.0,1,4,-0.238601416349411,0.0750180333852768,-0.05403966084122658,-0.0006917327409610152,0.00020106587908230722,0.0002151125663658604
78057.904,666,0.01676464080810547,0.0,0.0,1.0,1,4,-0.23860099911689758,0.07501813769340515,-0.05403938889503479,-0.00013375774142332375,0.00011081378761446103,7.804461347404867e-06
78068.405,669,0.016781771555542946,0.0,0.0,1.0,1,4,-0.23860082030296326,0.07501813024282455,-0.054040104150772095,-0.00010411178664071485,1.0489772648725193e-05,-4.691432332037948e-05
78079.048,673,0.01681634783744812,0.0,0.0,1.0,1,4,-0.23860065639019012,0.07501795887947083,-0.05404088273644447,7.539433863712475e-05,0.000366795837180689,-0.00013795954873785377
78089.516,676,0.01685451902449131,0.0,0.0,1.0,1,4,-0.23860053718090057,0.07501766830682755,-0.05404142662882805,0.00025517435278743505,0.00018657233158592135,-0.0001363425253657624
78100.028,680,0.016890065744519234,0.0,0.0,1.0,1,4,-0.2386004477739334,0.07501713931560516,-0.05404215306043625,-2.5370241928612813e-05,-0.00015756231732666492,-7.537601049989462e-05
78110.177,683,0.016901860013604164,0.0,0.0,1.0,1,4,-0.2386004477739334,0.07501663267612457,-0.05404236167669296,-4.7034165618242696e-05,-0.00021957233548164368,-2.100859819620382e-05
78120.597,687,0.016880368813872337,0.0,0.0,1.0,1,4,-0.23860040307044983,0.07501581311225891,-0.05404265224933624,9.754011989571154e-05,-0.00021639974147547036,8.127072942443192e-05
78131.122,690,0.016850726678967476,0.0,0.0,1.0,1,4,-0.23860026895999908,0.07501528412103653,-0.0540432408452034,-0.00028591117006726563,-0.000274499790975824,0.00011585706670302898
78141.969,694,0.016807014122605324,0.0,0.0,1.0,1,4,-0.2386000156402588,0.07501491904258728,-0.054043833166360855,-0.0001888726110337302,-0.0001628020836506039,9.271808085031807e-05
78152.513,697,0.016788654029369354,0.0,0.0,1.0,1,4,-0.23859991133213043,0.07501482218503952,-0.05404438078403473,0.0003156301099807024,-0.0001673905790084973,-1.2776131370628718e-06
78163.067,701,0.01680426299571991,0.0,0.0,1.0,1,4,-0.2385997176170349,0.07501470297574997,-0.054045144468545914,0.00034034723648801446,-6.509866216219962e-05,-0.00012213547597639263
78173.672,704,0.016826104372739792,0.0,0.0,1.0,1,4,-0.2385994791984558,0.07501452416181564,-0.054045420140028,-1.5675206668674946e-05,-0.0002806168922688812,-9.343401870864909e-06
78184.211,707,0.016838598996400833,0.0,0.0,1.0,1,4,-0.23859931528568268,0.07501426339149475,-0.05404527857899666,-4.267221811460331e-05,0.00015970492677297443,-4.44456709374208e-05
78194.683,711,0.01684652455151081,0.0,0.0,1.0,1,4,-0.23859940469264984,0.07501393556594849,-0.05404530465602875,1.1159855603182223e-05,0.0003515169955790043,-3.580627526389435e-05
78205.212,715,0.016858013346791267,0.0,0.0,1.0,1,4,-0.238599494099617,0.07501371204853058,-0.05404554679989815,-0.00034585161483846605,-2.0184932509437203e-05,-1.3985277291794773e-05
78215.758,718,0.01685606688261032,0.0,0.0,1.0,1,4,-0.2385994791984558,0.07501361519098282,-0.05404568463563919,-0.00013334714458324015,0.00044814468128606677,2.7262123694526963e-05
78226.286,721,0.01685710996389389,0.0,0.0,1.0,1,4,-0.238599494099617,0.07501360774040222,-0.05404621362686157,0.00012115940626244992,0.00019756889378186315,-3.900430601788685e-05
78236.906,725,0.016860265284776688,0.0,0.0,1.0,1,4,-0.23859946429729462,0.07501354813575745,-0.054046787321567535,0.00023887582938186824,0.00039095868123695254,1.4296870176622178e-05
78247.400,729,0.01688244752585888,0.0,0.0,1.0,1,4,-0.23859937489032745,0.0750134214758873,-0.05404742807149887,-0.00020817163749597967,0.00018781647668220103,-8.759499905863777e-05
78257.595,732,0.01688811555504799,0.0,0.0,1.0,1,4,-0.23859930038452148,0.07501336187124252,-0.054047636687755585,-6.435326213249937e-05,-0.00030291685834527016,-2.0633871827158146e-05
78268.171,736,0.016899043694138527,0.0,0.0,1.0,1,4,-0.2385992556810379,0.0750134214758873,-0.054048117250204086,-5.758682164014317e-06,0.00011238525621592999,-3.898400973412208e-05
78278.836,739,0.01691560074687004,0.0,0.0,1.0,1,4,-0.23859922587871552,0.07501353323459625,-0.05404854938387871,-6.994001887505874e-05,-8.764586527831852e-05,-5.23040653206408e-05
78289.295,743,0.01694435626268387,0.0,0.0,1.0,1,4,-0.23859916627407074,0.07501379400491714,-0.054049018770456314,7.81179824116407e-06,-0.00036319196806289256,-9.665831021266058e-05
78299.768,746,0.016973234713077545,0.0,0.0,1.0,1,4,-0.2385990470647812,0.07501411437988281,-0.05404919385910034,0.0002237726585008204,-0.0005999106797389686,-0.0001308112550759688
78310.299,750,0.017006846144795418,0.0,0.0,1.0,1,4,-0.23859888315200806,0.07501456886529922,-0.05404911935329437,0.0002898532839026302,-0.0006802214193157852,-6.65211264276877e-05
78320.840,753,0.017020780593156815,0.0,0.0,1.0,1,4,-0.2385987788438797,0.0750148594379425,-0.05404828488826752,0.0006259631481952965,-0.0002374975592829287,-8.41032961034216e-05
78331.416,757,0.01704205758869648,0.0,0.0,1.0,1,4,-0.23859883844852448,0.07501502335071564,-0.05404652655124664,0.0005099181435070932,-8.857295324560255e-05,-8.460850949632004e-05
78341.923,760,0.017020903527736664,0.0,0.0,1.0,1,4,-0.23859909176826477,0.07501484453678131,-0.054044775664806366,-0.00014130640192888677,-0.00016485320520587265,0.00010403627675259486
78352.458,764,0.01696315035223961,0.0,0.0,1.0,1,4,-0.23859965801239014,0.07501442730426788,-0.05404192581772804,-0.00020855001639574766,3.842611477011815e-05,0.0001919154019560665
78362.997,767,0.01689555123448372,0.0,0.0,1.0,1,4,-0.23859992623329163,0.07501430809497833,-0.054040420800447464,-0.0003139131295029074,0.00025213081971742213,0.0002459024835843593
78373.559,771,0.016825741156935692,0.0,0.0,1.0,1,4,-0.23859988152980804,0.07501447945833206,-0.05403934419155121,-0.0006781993433833122,0.00012116120342398062,0.00018688500858843327
78384.049,774,0.016811514273285866,0.0,0.0,1.0,1,4,-0.23859956860542297,0.07501466572284698,-0.05403897166252136,-0.00030957130366005003,0.0001676470274105668,4.036654718220234e-05
78394.626,778,0.01683684252202511,0.0,0.0,1.0,1,4,-0.2385990470647812,0.07501482963562012,-0.05403938516974449,0.00011347534018568695,-6.474038673331961e-05,-0.00011468186130514368
78405.197,781,0.016857970505952835,0.0,0.0,1.0,1,4,-0.2385987788438797,0.07501483708620071,-0.054040148854255676,-0.00015053355309646577,7.14220805093646e-05,-6.208082049852237e-05
78415.725,785,0.016905561089515686,0.0,0.0,1.0,1,4,-0.2385987639427185,0.07501477748155594,-0.05404094234108925,-0.00016194208001252264,0.00016211446200031787,-7.414418359985575e-05
78426.240,788,0.016933105885982513,0.0,0.0,1.0,1,4,-0.23859886825084686,0.07501456141471863,-0.05404137447476387,0.00032516420469619334,-2.6453923055669293e-05,-0.00010838750313268974
78436.983,792,0.016951171681284904,0.0,0.0,1.0,1,4,-0.23859885334968567,0.07501394301652908,-0.05404209718108177,0.00021590699907392263,7.526318222517148e-05,-3.63603044206684e-06
78447.361,795,0.016934899613261223,0.0,0.0,1.0,1,4,-0.2385988086462021,0.07501328736543655,-0.05404258146882057,-0.00026660109870135784,-0.0002314298035344109,0.00010979038052028045
78457.878,799,0.016867544502019882,0.0,0.0,1.0,1,4,-0.2385987490415573,0.07501228898763657,-0.05404327064752579,-0.0003174262819811702,-2.646062603162136e-05,0.00019744360179174691
78468.411,802,0.01680845208466053,0.0,0.0,1.0,1,4,-0.23859860002994537,0.07501156628131866,-0.054044030606746674,-0.00017439985822420567,0.00013645581202581525,0.0002068634785246104
78478.998,806,0.016739772632718086,0.0,0.0,1.0,1,4,-0.23859836161136627,0.07501081377267838,-0.05404532328248024,0.00019580888329073787,-9.991659680963494e-06,0.00010474538430571556
78489.512,809,0.016713054850697517,0.0,0.0,1.0,1,4,-0.2385983169078827,0.07501041889190674,-0.05404652655124664,7.109549915185198e-05,-0.00014737389574293047,4.820282629225403e-05
78500.025,813,0.016704408451914787,0.0,0.0,1.0,1,4,-0.2385983020067215,0.07500995695590973,-0.05404776707291603,-4.286360490368679e-05,-5.964470256003551e-05,2.7518563001649454e-06
78510.544,817,0.016726020723581314,0.0,0.0,1.0,1,4,-0.23859821259975433,0.07500948756933212,-0.054048214107751846,0.0006465371698141098,9.715071064420044e-05,-0.0001506482803961262
78521.109,820,0.016754038631916046,0.0,0.0,1.0,1,4,-0.23859813809394836,0.07500916719436646,-0.05404848977923393,0.0005364659591577947,0.000176078945514746,-0.0001502656377851963
78531.308,823,0.016791246831417084,0.0,0.0,1.0,1,4,-0.2385980188846588,0.07500898838043213,-0.05404841527342796,-0.00013374665286391973,-0.00015632211579941213,-9.967210644390434e-05
78541.849,827,0.016829963773489,0.0,0.0,1.0,1,4,-0.23859773576259613,0.07500904053449631,-0.05404762551188469,-0.0002379879733780399,0.0003249929868616164,-8.377018821192905e-05
78552.337,830,0.016859572380781174,0.0,0.0,1.0,1,4,-0.23859749734401703,0.07500912249088287,-0.05404718592762947,3.060289964196272e-05,1.1583439118112437e-05,-6.440524884965271e-05
78562.833,834,0.0169048011302948,0.0,0.0,1.0,1,4,-0.23859748244285583,0.07500926405191422,-0.05404721572995186,-0.00016583343676757067,0.0003930924867745489,-0.00016859089373610914
78573.415,837,0.016927123069763184,0.0,0.0,1.0,1,4,-0.23859760165214539,0.07500946521759033,-0.05404718592762947,-0.0002191446110373363,0.0003996841551270336,-5.3388419473776594e-05
78583.883,841,0.016966059803962708,0.0,0.0,1.0,1,4,-0.23859775066375732,0.07500976324081421,-0.05404743552207947,-0.00017351792484987527,-0.00025559234200045466,-3.8899219362065196e-05
78594.451,844,0.01697976514697075,0.0,0.0,1.0,1,4,-0.2385977804660797,0.07501004636287689,-0.054047755897045135,6.494941044365987e-05,0.00042554325773380697,-3.403297523618676e-05
78604.961,848,0.01700766757130623,0.0,0.0,1.0,1,4,-0.23859761655330658,0.07501029968261719,-0.05404844880104065,-2.826974741765298e-05,4.582653127727099e-05,-6.073000258766115e-05
78615.214,851,0.01701941341161728,0.0,0.0,1.0,1,4,-0.23859746754169464,0.07501039654016495,-0.05404878035187721,5.8416841056896374e-05,-8.807676931610331e-05,-2.8541655410663225e-05
78625.739,855,0.017018107697367668,0.0,0.0,1.0,1,4,-0.23859737813472748,0.07501049339771271,-0.05404891446232796,0.00029278462170623243,-0.0003049623337574303,-2.3054753910400905e-05
78636.367,858,0.017012063413858414,0.0,0.0,1.0,1,4,-0.23859736323356628,0.07501053810119629,-0.054048772901296616,0.00023761078773532063,-0.0004330793162807822,1.8506838728171715e-07
78646.787,862,0.01698516309261322,0.0,0.0,1.0,1,4,-0.23859740793704987,0.07501056790351868,-0.05404791608452797,0.0001572675973875448,-0.0003941398172173649,7.337809802265838e-05
78657.317,865,0.016962073743343353,0.0,0.0,1.0,1,4,-0.238597571849823,0.07501067221164703,-0.05404670163989067,0.0004218249814584851,-0.0003358271496836096,3.172639844706282e-05
78667.824,869,0.016944104805588722,0.0,0.0,1.0,1,4,-0.2385978251695633,0.07501080632209778,-0.05404452979564667,0.0004538530483841896,0.00013589415175374597,2.5475404981989413e-05
78678.407,872,0.016915621235966682,0.0,0.0,1.0,1,4,-0.23859800398349762,0.07501084357500076,-0.05404272675514221,-5.8195153542328626e-05,6.037256753188558e-05,9.75626171566546e-05
78688.876,876,0.01687169075012207,0.0,0.0,1.0,1,4,-0.23859810829162598,0.07501109689474106,-0.05404055863618851,-0.0007546690758317709,0.0005022138357162476,0.00012348459858912975
78699.457,879,0.016867496073246002,0.0,0.0,1.0,1,4,-0.23859800398349762,0.07501143217086792,-0.054039377719163895,-0.0007985129486769438,0.0003407394397072494,4.210122278891504e-05
78710.043,883,0.01689632423222065,0.0,0.0,1.0,1,4,-0.23859772086143494,0.07501176744699478,-0.05403861775994301,0.0001412183919455856,0.00012879163841716945,-8.42131266836077e-05
78720.576,886,0.016924012452363968,0.0,0.0,1.0,1,4,-0.23859746754169464,0.07501174509525299,-0.05403892695903778,0.0001759267906891182,0.00012111901014577597,-0.0001091324957087636
78731.047,890,0.016948016360402107,0.0,0.0,1.0,1,4,-0.23859716951847076,0.07501140236854553,-0.0540396086871624,-0.0005663710762746632,5.135289757163264e-05,3.587318497011438e-05
78741.138,893,0.016946343705058098,0.0,0.0,1.0,1,4,-0.23859700560569763,0.07501107454299927,-0.054039619863033295,-2.6314693968743086e-05,-4.864101720158942e-05,-3.3426645131839905e-06
78751.710,897,0.01692919060587883,0.0,0.0,1.0,1,4,-0.23859697580337524,0.07501061260700226,-0.054040003567934036,0.00049350515473634,-0.00011887963773915544,8.151373549480923e-06
78762.227,900,0.016901526600122452,0.0,0.0,1.0,1,4,-0.2385970503091812,0.0750102624297142,-0.054040439426898956,2.6917523427982815e-05,-0.000288175797322765,0.00011030228051822633
78772.742,904,0.016866007819771767,0.0,0.0,1.0,1,4,-0.23859719932079315,0.0750098004937172,-0.0540408156812191,-0.0005014687776565552,-0.000228804477956146,0.0001692903315415606
78783.241,907,0.016827059909701347,0.0,0.0,1.0,1,4,-0.23859721422195435,0.07500936090946198,-0.0540413074195385,-0.0002700497570913285,-0.0002364247920922935,0.00012821592099498957
78793.833,911,0.01679103448987007,0.0,0.0,1.0,1,4,-0.23859688639640808,0.07500866800546646,-0.05404257774353027,5.373306066758232e-06,0.00027395409415476024,3.544036371749826e-05
78804.324,914,0.016771703958511353,0.0,0.0,1.0,1,4,-0.2385965883731842,0.0750080868601799,-0.054043758660554886,0.00014076029765419662,5.765003152191639e-05,2.669330388016533e-05
78814.905,918,0.01675805076956749,0.0,0.0,1.0,1,4,-0.23859645426273346,0.07500733435153961,-0.054045334458351135,3.582447243388742e-05,-6.998512981226668e-05,1.775606142473407e-05
78825.401,921,0.016750246286392212,0.0,0.0,1.0,1,4,-0.23859646916389465,0.07500676810741425,-0.05404634028673172,-5.704838258679956e-05,-3.603377263061702e-05,5.6944816606119275e-05
78835.931,925,0.016749778762459755,0.0,0.0,1.0,1,4,-0.2385966181755066,0.07500608265399933,-0.05404721572995186,0.0002548022603150457,1.4932527847122401e-05,-4.564479604596272e-05
78846.643,928,0.016752835363149643,0.0,0.0,1.0,1,4,-0.2385968267917633,0.07500570267438889,-0.05404774099588394,0.0004753040266223252,-0.00012840131239499897,-2.556991603341885e-05
78857.070,932,0.01676572673022747,0.0,0.0,1.0,1,4,-0.23859699070453644,0.0750054344534874,-0.0540483258664608,-5.665600474458188e-05,3.914878470823169e-05,-5.183697066968307e-05
78867.665,935,0.016784656792879105,0.0,0.0,1.0,1,4,-0.23859679698944092,0.07500533759593964,-0.05404828116297722,-0.00012756687647197396,0.0003385053714737296,-9.230347495758906e-05
78878.115,939,0.016832424327731133,0.0,0.0,1.0,1,4,-0.23859629034996033,0.07500535249710083,-0.054048094898462296,0.00021907666814513505,-1.4105250556895044e-05,-8.881786197889596e-05
78888.666,942,0.016876710578799248,0.0,0.0,1.0,1,4,-0.23859599232673645,0.07500545680522919,-0.054048165678977966,2.8180655135656707e-05,0.00012953675468452275,-0.00017621579172555357
78899.226,946,0.01691083423793316,0.0,0.0,1.0,1,4,-0.23859572410583496,0.07500573992729187,-0.05404791608452797,-4.9676116759656e-05,0.00029909959994256496,-4.362358231446706e-05
78909.761,949,0.016952889040112495,0.0,0.0,1.0,1,4,-0.238595649600029,0.07500602304935455,-0.05404764041304588,2.3455209884559736e-05,0.00024960178416222334,-0.00013096901238895953
78920.284,953,0.01699366793036461,0.0,0.0,1.0,1,4,-0.23859578371047974,0.07500648498535156,-0.054047588258981705,-0.00016292056534439325,0.00043705845018848777,-0.00014722866762895137
78930.792,956,0.017015235498547554,0.0,0.0,1.0,1,4,-0.2385959029197693,0.075006864964962,-0.05404764413833618,-0.00024548708461225033,-0.00018295399786438793,-4.66525016236119e-05
78941.320,960,0.017041027545928955,0.0,0.0,1.0,1,4,-0.23859600722789764,0.07500722259283066,-0.054047685116529465,0.00010584713163552806,0.00010366454080212861,-6.20916616753675e-05
78951.911,964,0.0170480627566576,0.0,0.0,1.0,1,4,-0.23859600722789764,0.07500721514225006,-0.054047662764787674,0.00040007452480494976,3.2810557968332432e-06,-4.0031136450124905e-05
78962.434,967,0.017034457996487617,0.0,0.0,1.0,1,4,-0.23859600722789764,0.07500698417425156,-0.054047442972660065,0.00018952263053506613,-0.00022856661234982312,4.514375177677721e-05
78972.963,971,0.016984794288873672,0.0,0.0,1.0,1,4,-0.23859606683254242,0.07500645518302917,-0.054046474397182465,3.689019285957329e-05,-0.00042750034481287,0.00013809875235892832
78983.811,974,0.01692676730453968,0.0,0.0,1.0,1,4,-0.23859617114067078,0.07500604540109634,-0.054045453667640686,9.92685163510032e-05,-0.0004975972697138786,0.0002151172375306487
78994.323,978,0.016854314133524895,0.0,0.0,1.0,1,4,-0.23859648406505585,0.07500579208135605,-0.054043833166360855,0.00022329801868181676,-0.0004706584441009909,0.00012864379095844924
79004.841,981,0.016805898398160934,0.0,0.0,1.0,1,3,-0.23859678208827972,0.0750059187412262,-0.05404281988739967,2.8836100682383403e-05,-4.1823632273008116e-06,0.00018696875486057252
79015.371,985,0.01678289659321308,0.0,0.0,1.0,1,3,-0.23859666287899017,0.07500653713941574,-0.05404131859540939,-0.0003941362665500492,0.00016791294910944998,5.302932549966499e-06
79025.917,988,0.01682857982814312,0.0,0.0,1.0,1,3,-0.2385961413383484,0.0750071108341217,-0.05404014140367508,-0.0001369441015413031,1.3848211892764084e-05,-0.00017266417853534222
79036.542,992,0.016901610419154167,0.0,0.0,1.0,1,3,-0.23859566450119019,0.07500774413347244,-0.05403967201709747,-8.677107689436525e-05,0.00032868993002921343,-0.00019305817841086537
79047.038,995,0.01697239838540554,0.0,0.0,1.0,1,3,-0.2385956197977066,0.07500801980495453,-0.05403979867696762,-0.0006478542345575988,0.00023962619889061898,-0.000175208188011311
79057.586,999,0.0170443132519722,0.0,0.0,1.0,1,3,-0.23859553039073944,0.07500795274972916,-0.05403950810432434,5.3053125157020986e-05,-0.00011810768046416342,-0.00011825692490674555
79068.174,1002,0.017059188336133957,0.0,0.0,1.0,1,3,-0.23859545588493347,0.07500769942998886,-0.054039739072322845,0.00046066194772720337,0.00013078910706099123,-4.879995685769245e-05
79078.750,1006,0.017038045451045036,0.0,0.0,1.0,1,3,-0.23859544098377228,0.07500727474689484,-0.05404021218419075,-4.819213063456118e-05,-0.00012548953236546367,8.548977348254994e-05
79089.290,1009,0.016988977789878845,0.0,0.0,1.0,1,3,-0.23859547078609467,0.0750068798661232,-0.054040201008319855,-0.0002098739641951397,-0.00024842098355293274,0.0001864889491116628
79099.889,1013,0.01689981296658516,0.0,0.0,1.0,1,3,-0.23859547078609467,0.07500627636909485,-0.05404036119580269,-9.329239401267841e-05,-3.563647624105215e-05,0.00023110645997803658
79110.077,1016,0.01684051752090454,0.0,0.0,1.0,1,3,-0.2385953664779663,0.07500583678483963,-0.05404102802276611,-0.0003044133773073554,-0.00013709679478779435,0.0002045580476988107
79120.581,1020,0.016776882112026215,0.0,0.0,1.0,1,3,-0.23859506845474243,0.07500536739826202,-0.054042309522628784,-0.00039689720142632723,4.2666033550631255e-05,0.00017719293828122318
79131.102,1023,0.016750242561101913,0.0,0.0,1.0,1,3,-0.2385948896408081,0.07500511407852173,-0.05404333770275116,0.0001654541993048042,5.1274295401526615e-05,2.3606458853464574e-05
79141.628,1027,0.01674952358007431,0.0,0.0,1.0,1,3,-0.23859474062919617,0.07500465214252472,-0.05404500290751457,0.00039850035682320595,6.848781777080148e-05,-9.116729052038863e-05
79152.370,1030,0.016766486689448357,0.0,0.0,1.0,1,3,-0.2385946810245514,0.07500415295362473,-0.054046113044023514,-5.0165097491117194e-05,1.0753013157227542e-05,-8.650319796288386e-05
79162.937,1034,0.016781151294708252,0.0,0.0,1.0,1,3,-0.23859474062919617,0.07500337064266205,-0.05404660105705261,0.00016372078971471637,0.00037458172300830483,-3.558984462870285e-05
79173.523,1037,0.016789035871624947,0.0,0.0,1.0,1,3,-0.2385949343442917,0.0750027671456337,-0.05404668673872948,0.0005745546077378094,8.374325989279896e-05,-7.18074879841879e-05
79184.023,1041,0.01677527092397213,0.0,0.0,1.0,1,3,-0.23859518766403198,0.07500208169221878,-0.05404719337821007,-0.00019032697309739888,0.000259962776908651,2.780937575153075e-05
79194.604,1044,0.016774209216237068,0.0,0.0,1.0,1,3,-0.2385951578617096,0.07500176876783371,-0.05404716357588768,-0.0006113413837738335,0.00016142844106070697,6.526071956614032e-05
79205.116,1048,0.016785217449069023,0.0,0.0,1.0,1,3,-0.23859494924545288,0.07500164210796356,-0.054047178477048874,6.514761480502784e-05,8.408105350099504e-05,-7.560569792985916e-05
79215.636,1051,0.01680595427751541,0.0,0.0,1.0,1,3,-0.23859484493732452,0.07500172406435013,-0.05404781550168991,0.0002719748008530587,-9.324865459348075e-06,-9.127517114393413e-05
79226.172,1055,0.016861893236637115,0.0,0.0,1.0,1,3,-0.23859469592571259,0.07500188052654266,-0.05404861271381378,-7.803786138538271e-05,-0.00015032464580144733,-8.342562068719417e-05
79236.282,1058,0.016907406970858574,0.0,0.0,1.0,1,3,-0.23859448730945587,0.07500200718641281,-0.05404888093471527,-0.00011689306847983971,2.3249591322382912e-05,-0.00016396454884670675
79246.796,1062,0.01696467399597168,0.0,0.0,1.0,1,3,-0.23859412968158722,0.07500243932008743,-0.05404875800013542,0.0005578614072874188,-4.2664756620069966e-05,-0.0001995393686229363
79257.364,1065,0.017011089250445366,0.0,0.0,1.0,1,3,-0.2385939210653305,0.07500289380550385,-0.05404869467020035,0.00035450668656267226,-0.0002117038966389373,-0.0001306343183387071
79267.886,1069,0.017043273895978928,0.0,0.0,1.0,1,3,-0.23859389126300812,0.07500341534614563,-0.05404817312955856,-0.00040550559060648084,0.00013899520854465663,-4.9327318265568465e-05
79278.423,1072,0.017065944150090218,0.0,0.0,1.0,1,3,-0.2385941594839096,0.07500364631414413,-0.05404737591743469,-0.00029752327827736735,7.394778094749199e-06,-4.6029341319808736e-05
79288.955,1076,0.017065929248929024,0.0,0.0,1.0,1,3,-0.23859460651874542,0.0750037282705307,-0.0540463961660862,0.00042234690045006573,-7.398160960292444e-05,-5.318755938787945e-06
79299.526,1079,0.017048876732587814,0.0,0.0,1.0,1,3,-0.23859477043151855,0.07500355690717697,-0.05404585227370262,0.00021330102754291147,-8.260761387646198e-05,5.1868872105842456e-05
79310.056,1083,0.016992902383208275,0.0,0.0,1.0,1,3,-0.23859485983848572,0.07500308007001877,-0.054044876247644424,-0.00027877526008524,-0.0003242183302063495,0.0001886088721221313
79320.652,1086,0.01693636365234852,0.0,0.0,1.0,1,3,-0.23859500885009766,0.07500267028808594,-0.05404401198029518,-0.00017242807371076196,-0.00044833566062152386,0.0002298669278388843
79331.089,1090,0.016837306320667267,0.0,0.0,1.0,1,3,-0.23859524726867676,0.07500237226486206,-0.054043106734752655,0.0002690510591492057,-6.907937404321274e-06,0.00020581480930559337
79341.626,1094,0.01677715964615345,0.0,0.0,1.0,1,3,-0.238595113158226,0.07500258833169937,-0.054042696952819824,-0.0003627851256169379,0.0003381557180546224,6.404851592378691e-05
79352.381,1097,0.016788369044661522,0.0,0.0,1.0,1,3,-0.23859471082687378,0.07500288635492325,-0.05404200032353401,-0.00015234177408274263,1.6347388736903667e-05,-5.0622176786419004e-05
79362.835,1100,0.01681569032371044,0.0,0.0,1.0,1,3,-0.23859426379203796,0.07500316947698593,-0.054041534662246704,0.0002886966394726187,-9.067261271411553e-05,-0.00015947215433698148
79373.427,1104,0.0168936625123024,0.0,0.0,1.0,1,3,-0.23859380185604095,0.07500354200601578,-0.05404127016663551,-8.153449016390368e-06,-0.00012413454533088952,-0.0001844297075876966
79383.898,1108,0.016960373148322105,0.0,0.0,1.0,1,3,-0.23859348893165588,0.07500380277633667,-0.054040778428316116,-0.00040423497557640076,9.622201105230488e-06,-0.00011553276999620721
79394.421,1111,0.01700248196721077,0.0,0.0,1.0,1,3,-0.23859348893165588,0.0750039666891098,-0.05404035747051239,3.375122832949273e-05,6.002332520438358e-05,-0.00010559964721323922
79404.942,1115,0.01704234629869461,0.0,0.0,1.0,1,3,-0.23859380185604095,0.07500410079956055,-0.05404052510857582,-2.994556416524574e-05,0.0003003932361025363,-5.6873715948313475e-05
79415.499,1118,0.017047405242919922,0.0,0.0,1.0,1,3,-0.2385939210653305,0.07500399649143219,-0.054040536284446716,-6.288549775490537e-05,-5.410431185737252e-05,3.3964141039177775e-05
79425.753,1122,0.017015665769577026,0.0,0.0,1.0,1,3,-0.23859377205371857,0.07500352710485458,-0.054040636867284775,9.707581921247765e-05,1.7090236724470742e-05,0.00016358454013243318
79436.284,1125,0.016966480761766434,0.0,0.0,1.0,1,3,-0.23859354853630066,0.07500302046537399,-0.054041244089603424,-0.00030384931596927345,0.00013020467304158956,0.0001733830285957083
79446.831,1129,0.01687740907073021,0.0,0.0,1.0,1,3,-0.2385932058095932,0.07500232756137848,-0.054042138159275055,-0.0003576804883778095,9.213441808242351e-05,0.00026673980755731463
79457.416,1132,0.016813792288303375,0.0,0.0,1.0,1,3,-0.23859307169914246,0.07500192523002625,-0.05404292792081833,0.00010642376582836732,0.00026630188222043216,0.00016121743828989565
79467.971,1135,0.01677860878407955,0.0,0.0,1.0,1,3,-0.23859311640262604,0.07500161975622177,-0.054044000804424286,0.000275248137768358,-0.00019084035011474043,6.446406041504815e-05
79478.455,1139,0.016757747158408165,0.0,0.0,1.0,1,3,-0.23859328031539917,0.07500126957893372,-0.05404532328248024,-2.435744318063371e-05,-0.00017534724611323327,2.8256305085960776e-05
79488.986,1143,0.016771310940384865,0.0,0.0,1.0,1,3,-0.23859331011772156,0.07500080019235611,-0.054046016186475754,0.0001516300399089232,-7.419148460030556e-05,-7.873891445342451e-05
79499.506,1146,0.01677064783871174,0.0,0.0,1.0,1,3,-0.238593190908432,0.07500031590461731,-0.054046183824539185,0.0005740566994063556,0.00018845812883228064,-2.51397486863425e-05
79510.110,1150,0.016773570328950882,0.0,0.0,1.0,1,3,-0.238593190908432,0.07499969005584717,-0.054046761244535446,-9.137883898802102e-05,0.0005704216891899705,-2.351873627048917e-05
79520.628,1153,0.01678614504635334,0.0,0.0,1.0,1,3,-0.23859326541423798,0.07499932497739792,-0.05404676869511604,-0.0003597048344090581,0.00028262054547667503,3.950746395275928e-05
79530.703,1157,0.016796289011836052,0.0,0.0,1.0,1,3,-0.2385932058095932,0.07499893009662628,-0.05404668301343918,-4.526792326942086e-05,0.00034961506025865674,-5.0573089538374916e-05
79541.541,1160,0.016808949410915375,0.0,0.0,1.0,1,3,-0.23859313130378723,0.07499874383211136,-0.05404708907008171,6.357297388603911e-05,6.0207930800970644e-05,-1.6175305063370615e-05
79551.925,1164,0.01685183495283127,0.0,0.0,1.0,1,3,-0.23859311640262604,0.074998639523983,-0.054047875106334686,-0.00028612554888240993,-8.69650102686137e-05,-9.510423842584714e-05
79562.451,1167,0.016873817890882492,0.0,0.0,1.0,1,3,-0.23859311640262604,0.07499869912862778,-0.054048389196395874,-1.5168704521784093e-05,-0.00037164054811000824,-7.337413262575865e-05
79572.980,1171,0.01691826991736889,0.0,0.0,1.0,1,3,-0.23859284818172455,0.07499891519546509,-0.05404900386929512,0.00029742790502496064,-0.00014541123528033495,-0.00011202019231859595
79583.502,1174,0.016951145604252815,0.0,0.0,1.0,1,3,-0.2385925054550171,0.074999138712883,-0.05404907092452049,0.00047876371536403894,-2.1331461539375596e-05,-0.00016578171926084906
79594.021,1178,0.01700163446366787,0.0,0.0,1.0,1,3,-0.23859229683876038,0.07499953359365463,-0.05404846370220184,0.0005180616280995309,-0.00014107466267887503,-0.00019076479657087475
79604.801,1181,0.01702425815165043,0.0,0.0,1.0,1,3,-0.23859231173992157,0.07499975711107254,-0.054047588258981705,-2.3285347197088413e-05,-6.661045335931703e-05,-4.2522842704784125e-05
79615.211,1185,0.0170283280313015,0.0,0.0,1.0,1,3,-0.23859252035617828,0.0749998614192009,-0.05404578149318695,-0.00026558846002444625,-0.0001992739416891709,5.117768068885198e-06
