t_ms,PacketId,SpeedKmh,SteerAngle,Gas,Brake,Gear,Rpms,Heading,Pitch,Roll,AccG_x,AccG_y,AccG_z,Velocity_x,Velocity_y,Velocity_z,WheelSlip_0,WheelSlip_1,WheelSlip_2,WheelSlip_3
113534.440,11,0.018474603071808815,0.0,0.0,1.0,1,7,-0.23861180245876312,0.07500079274177551,-0.054041627794504166,0.0010906896786764264,-9.516530553810298e-05,8.908491145120934e-05,-0.001563374069519341,-0.0015638842014595866,-0.004625862929970026,0.040528371930122375,0.04552268236875534,0.03963712230324745,0.04553350806236267
113549.858,16,0.018393002450466156,0.0,0.0,1.0,1,7,-0.23861193656921387,0.07500439137220383,-0.05404316633939743,-0.00011404351243982092,-0.00014124144217930734,0.00021758867660537362,-0.0015244735404849052,-0.0015941800083965063,-0.004604743793606758,0.04049238562583923,0.04480407014489174,0.039781928062438965,0.04481832683086395
113549.949,16,0.018393002450466156,0.0,0.0,1.0,1,7,-0.23861193656921387,0.07500439137220383,-0.05404316633939743,-0.00011404351243982092,-0.00014124144217930734,0.00021758867660537362,-0.0015244735404849052,-0.0015941800083965063,-0.004604743793606758,0.04049238562583923,0.04480407014489174,0.039781928062438965,0.04481832683086395
113567.711,21,0.018307778984308243,0.0,0.0,1.0,1,7,-0.2386123389005661,0.07500798255205154,-0.054042037576436996,0.00046954103163443506,0.00022962062212172896,8.248701487900689e-05,-0.0014882232062518597,-0.0015784098068252206,-0.00459238002076745,0.04081717133522034,0.0448945015668869,0.040186259895563126,0.044833701103925705
113567.814,21,0.018307778984308243,0.0,0.0,1.0,1,7,-0.2386123389005661,0.07500798255205154,-0.054042037576436996,0.00046954103163443506,0.00022962062212172896,8.248701487900689e-05,-0.0014882232062518597,-0.0015784098068252206,-0.00459238002076745,0.04081717133522034,0.0448945015668869,0.040186259895563126,0.044833701103925705
113583.535,27,0.01815214194357395,0.0,0.0,1.0,1,7,-0.23861245810985565,0.07501175254583359,-0.054040826857089996,-0.00021981936879456043,0.0006831999053247273,0.00010186386498389766,-0.0014504091814160347,-0.0014657507417723536,-0.004594551399350166,0.0403844378888607,0.04446472227573395,0.040234144777059555,0.04454172030091286
113597.773,32,0.018051108345389366,0.0,0.0,1.0,1,7,-0.23861180245876312,0.07501497864723206,-0.054039210081100464,-0.0005300850607454777,0.0006109348032623529,3.674575054901652e-05,-0.0015358628006651998,-0.0013810618547722697,-0.004566380754113197,0.04027578979730606,0.04464096948504448,0.04028768092393875,0.04433464631438255
113597.883,32,0.018051108345389366,0.0,0.0,1.0,1,7,-0.23861180245876312,0.07501497864723206,-0.054039210081100464,-0.0005300850607454777,0.0006109348032623529,3.674575054901652e-05,-0.0015358628006651998,-0.0013810618547722697,-0.004566380754113197,0.04027578979730606,0.04464096948504448,0.04028768092393875,0.04433464631438255
113620.164,39,0.01800992526113987,0.0,0.0,1.0,1,7,-0.2386108785867691,0.07501953095197678,-0.054039087146520615,-0.0002575784455984831,0.0002548942866269499,2.018173472606577e-05,-0.0015614195726811886,-0.001295828609727323,-0.0045713703148067,0.04032115638256073,0.044607020914554596,0.04025028645992279,0.04395218938589096
113620.252,39,0.01800992526113987,0.0,0.0,1.0,1,7,-0.2386108785867691,0.07501953095197678,-0.054039087146520615,-0.0002575784455984831,0.0002548942866269499,2.018173472606577e-05,-0.0015614195726811886,-0.001295828609727323,-0.0045713703148067,0.04032115638256073,0.044607020914554596,0.04025028645992279,0.04395218938589096
113642.912,47,0.0179912056773901,0.0,0.0,1.0,1,7,-0.2386104315519333,0.0750243067741394,-0.05403983220458031,0.00036487160832621157,0.00039863341953605413,-0.00010142110113520175,-0.0015699475770816207,-0.001197549165226519,-0.004590980708599091,0.040454354137182236,0.04461824893951416,0.04067141190171242,0.04411129653453827
113642.991,47,0.0179912056773901,0.0,0.0,1.0,1,7,-0.2386104315519333,0.0750243067741394,-0.05403983220458031,0.00036487160832621157,0.00039863341953605413,-0.00010142110113520175,-0.0015699475770816207,-0.001197549165226519,-0.004590980708599091,0.040454354137182236,0.04461824893951416,0.04067141190171242,0.04411129653453827
113660.971,50,0.017978113144636154,0.0,0.0,1.0,1,7,-0.2386098951101303,0.07502691447734833,-0.05404064804315567,-2.6073748813359998e-05,2.83852314169053e-05,0.00012631548452191055,-0.0015681873774155974,-0.0011551198549568653,-0.004593488294631243,0.04055212065577507,0.04439881071448326,0.04059591144323349,0.043728165328502655
113661.087,51,0.017961671575903893,0.0,0.0,1.0,1,7,-0.23860983550548553,0.07502738386392593,-0.054040756076574326,-0.0002196574496338144,0.0008750444976612926,4.0603859815746546e-05,-0.0015767790609970689,-0.0011530572082847357,-0.004586673341691494,0.04060887545347214,0.0444243848323822,0.040555212646722794,0.04366555064916611
113695.279,62,0.017712010070681572,0.0,0.0,1.0,1,7,-0.2386096566915512,0.0750313252210617,-0.05404175445437431,-0.0002597440034151077,0.0004250727070029825,0.00019455916481092572,-0.001583092613145709,-0.0009688830468803644,-0.0045484150759875774,0.04068034142255783,0.04416307061910629,0.0408611074090004,0.04389099031686783
113695.354,62,0.017712010070681572,0.0,0.0,1.0,1,7,-0.2386096566915512,0.0750313252210617,-0.05404175445437431,-0.0002597440034151077,0.0004250727070029825,0.00019455916481092572,-0.001583092613145709,-0.0009688830468803644,-0.0045484150759875774,0.04068034142255783,0.04416307061910629,0.0408611074090004,0.04389099031686783
113695.394,62,0.017712010070681572,0.0,0.0,1.0,1,7,-0.2386096566915512,0.0750313252210617,-0.05404175445437431,-0.0002597440034151077,0.0004250727070029825,0.00019455916481092572,-0.001583092613145709,-0.0009688830468803644,-0.0045484150759875774,0.04068034142255783,0.04416307061910629,0.0408611074090004,0.04389099031686783
113706.551,66,0.017611844465136528,0.0,0.0,1.0,1,7,-0.23860926926136017,0.07503235340118408,-0.05404239147901535,-0.0002558327396400273,0.0004772684187628329,0.00027008034521713853,-0.0016117128543555737,-0.0009300420060753822,-0.0045154099352657795,0.040871717035770416,0.044168971478939056,0.04087851196527481,0.04378843307495117
113722.667,71,0.017502490431070328,0.0,0.0,1.0,1,7,-0.23860903084278107,0.07503361254930496,-0.054043736308813095,0.0001756949204718694,0.0002713514259085059,0.0001608820166438818,-0.0016006295336410403,-0.00087400758638978,-0.004500406328588724,0.04097938537597656,0.04430270940065384,0.04095882922410965,0.0436658076941967
113722.738,71,0.017502490431070328,0.0,0.0,1.0,1,7,-0.23860903084278107,0.07503361254930496,-0.054043736308813095,0.0001756949204718694,0.0002713514259085059,0.0001608820166438818,-0.0016006295336410403,-0.00087400758638978,-0.004500406328588724,0.04097938537597656,0.04430270940065384,0.04095882922410965,0.0436658076941967
113737.406,76,0.01743324100971222,0.0,0.0,1.0,1,7,-0.23860898613929749,0.0750347226858139,-0.05404549464583397,-0.00010352932440582663,0.00046692544128745794,3.120513429166749e-05,-0.0016088546253740788,-0.0008186663035303354,-0.00449042534455657,0.04085317626595497,0.04401286318898201,0.041107773780822754,0.043706320226192474
113757.779,83,0.017377929762005806,0.0,0.0,1.0,1,7,-0.23860852420330048,0.07503580302000046,-0.054047517478466034,0.0001963779650395736,0.00034294702345505357,2.4800245228107087e-05,-0.001598287490196526,-0.0007323865429498255,-0.004493420477956533,0.04103623330593109,0.04418066889047623,0.04111654683947563,0.043547481298446655
113757.951,83,0.017377929762005806,0.0,0.0,1.0,1,7,-0.23860852420330048,0.07503580302000046,-0.054047517478466034,0.0001963779650395736,0.00034294702345505357,2.4800245228107087e-05,-0.001598287490196526,-0.0007323865429498255,-0.004493420477956533,0.04103623330593109,0.04418066889047623,0.04111654683947563,0.043547481298446655
113757.989,83,0.017377929762005806,0.0,0.0,1.0,1,7,-0.23860852420330048,0.07503580302000046,-0.054047517478466034,0.0001963779650395736,0.00034294702345505357,2.4800245228107087e-05,-0.001598287490196526,-0.0007323865429498255,-0.004493420477956533,0.04103623330593109,0.04418066889047623,0.04111654683947563,0.043547481298446655
113768.603,87,0.017357302829623222,0.0,0.0,1.0,1,7,-0.23860856890678406,0.07503636181354523,-0.054048433899879456,0.0003219156642444432,0.0006231219158507884,-3.0637533200206235e-05,-0.0015674293972551823,-0.0006897214334458113,-0.004506520461291075,0.04106348752975464,0.04423939809203148,0.04119373485445976,0.04347560182213783
113784.164,92,0.017358802258968353,0.0,0.0,1.0,1,7,-0.23860879242420197,0.07503693550825119,-0.05404910072684288,-7.472569268429652e-05,-7.866384839871898e-05,2.7837519155582413e-05,-0.0015696785412728786,-0.0006836115499027073,-0.004507336299866438,0.041074562817811966,0.04386568441987038,0.04138028249144554,0.043356940150260925
113800.086,97,0.017357610166072845,0.0,0.0,1.0,1,7,-0.23860891163349152,0.07503744959831238,-0.054049305617809296,-2.9096545404172502e-05,-0.00011790102144004777,-3.6197750432620523e-06,-0.001576474867761135,-0.0006998543394729495,-0.004502858500927687,0.04131627455353737,0.043779317289590836,0.041524022817611694,0.04316643625497818
113800.191,97,0.017357610166072845,0.0,0.0,1.0,1,7,-0.23860891163349152,0.07503744959831238,-0.054049305617809296,-2.9096545404172502e-05,-0.00011790102144004777,-3.6197750432620523e-06,-0.001576474867761135,-0.0006998543394729495,-0.004502858500927687,0.04131627455353737,0.043779317289590836,0.041524022817611694,0.04316643625497818
113820.524,104,0.017364487051963806,0.0,0.0,1.0,1,7,-0.23860925436019897,0.07503800094127655,-0.05404973402619362,0.00013186826254241168,-0.00024981392198242247,-7.782869943184778e-06,-0.001558314193971455,-0.0007525437977164984,-0.004502859897911549,0.041586026549339294,0.04339879751205444,0.04194963723421097,0.043171823024749756
113820.700,104,0.017364487051963806,0.0,0.0,1.0,1,7,-0.23860925436019897,0.07503800094127655,-0.05404973402619362,0.00013186826254241168,-0.00024981392198242247,-7.782869943184778e-06,-0.001558314193971455,-0.0007525437977164984,-0.004502859897911549,0.041586026549339294,0.04339879751205444,0.04194963723421097,0.043171823024749756
113836.690,110,0.017379170283675194,0.0,0.0,1.0,1,7,-0.23860891163349152,0.07503817230463028,-0.05404895916581154,0.00037564654485322535,-0.0004870668926741928,-1.9395693016122095e-05,-0.0014899576781317592,-0.0008234635461121798,-0.004516240209341049,0.04194589704275131,0.043190743774175644,0.04215221107006073,0.043119702488183975
113854.961,116,0.017315667122602463,0.0,0.0,1.0,1,7,-0.23860867321491241,0.07503848522901535,-0.054046861827373505,0.0001198527097585611,0.0003674757026601583,9.282350947614759e-05,-0.0014458037912845612,-0.0008207335486076772,-0.004509281367063522,0.04188639670610428,0.043298061937093735,0.042061351239681244,0.04285413399338722
113855.049,116,0.017315667122602463,0.0,0.0,1.0,1,7,-0.23860867321491241,0.07503848522901535,-0.054046861827373505,0.0001198527097585611,0.0003674757026601583,9.282350947614759e-05,-0.0014458037912845612,-0.0008207335486076772,-0.004509281367063522,0.04188639670610428,0.043298061937093735,0.042061351239681244,0.04285413399338722
113879.411,124,0.01723085530102253,0.0,0.0,1.0,1,7,-0.23860859870910645,0.07503930479288101,-0.05404379963874817,-0.0002634361444506794,0.0004956490593031049,-1.3229377145762555e-05,-0.0015355703653767705,-0.0006866813055239618,-0.004481627140194178,0.04152223840355873,0.043405964970588684,0.04191061854362488,0.042899150401353836
113879.497,124,0.01723085530102253,0.0,0.0,1.0,1,7,-0.23860859870910645,0.07503930479288101,-0.05404379963874817,-0.0002634361444506794,0.0004956490593031049,-1.3229377145762555e-05,-0.0015355703653767705,-0.0006866813055239618,-0.004481627140194178,0.04152223840355873,0.043405964970588684,0.04191061854362488,0.042899150401353836
113879.539,124,0.01723085530102253,0.0,0.0,1.0,1,7,-0.23860859870910645,0.07503930479288101,-0.05404379963874817,-0.0002634361444506794,0.0004956490593031049,-1.3229377145762555e-05,-0.0015355703653767705,-0.0006866813055239618,-0.004481627140194178,0.04152223840355873,0.043405964970588684,0.04191061854362488,0.042899150401353836
113894.700,129,0.017259476706385612,0.0,0.0,1.0,1,7,-0.23860859870910645,0.0750395655632019,-0.0540430024266243,6.788273458369076e-05,8.919435640564188e-05,-7.115653716027737e-05,-0.0015364267164841294,-0.0006777541129849851,-0.0044926609843969345,0.04164288938045502,0.04336576908826828,0.041987791657447815,0.042846694588661194
113908.776,134,0.017293596640229225,0.0,0.0,1.0,1,7,-0.23860867321491241,0.0750398337841034,-0.05404277145862579,-0.00019852339755743742,-0.00022403892944566905,9.626534847484436e-06,-0.0015604175860062242,-0.0006969182868488133,-0.004490326624363661,0.04166525602340698,0.0430954210460186,0.04205275699496269,0.042689304798841476
113908.869,134,0.017293596640229225,0.0,0.0,1.0,1,7,-0.23860867321491241,0.0750398337841034,-0.05404277145862579,-0.00019852339755743742,-0.00022403892944566905,9.626534847484436e-06,-0.0015604175860062242,-0.0006969182868488133,-0.004490326624363661,0.04166525602340698,0.0430954210460186,0.04205275699496269,0.042689304798841476
113924.155,139,0.017292752861976624,0.0,0.0,1.0,1,7,-0.2386084645986557,0.07504002004861832,-0.05404298007488251,-0.0002076249074889347,0.00034436272107996047,3.192717849742621e-05,-0.0015955332200974226,-0.000681061006616801,-0.00447869161143899,0.04161492735147476,0.04298745468258858,0.042228955775499344,0.042841799557209015
113941.687,145,0.017295019701123238,0.0,0.0,1.0,1,7,-0.23860780894756317,0.07504037767648697,-0.05404350534081459,0.00033950197394005954,0.00015208814875222743,-6.0685910284519196e-05,-0.0015533670084550977,-0.0006426876061595976,-0.004501016810536385,0.04173476994037628,0.043336041271686554,0.04217683896422386,0.042790595442056656
113941.767,145,0.017295019701123238,0.0,0.0,1.0,1,7,-0.23860780894756317,0.07504037767648697,-0.05404350534081459,0.00033950197394005954,0.00015208814875222743,-6.0685910284519196e-05,-0.0015533670084550977,-0.0006426876061595976,-0.004501016810536385,0.04173476994037628,0.043336041271686554,0.04217683896422386,0.042790595442056656
113955.282,149,0.01730385422706604,0.0,0.0,1.0,1,6,-0.23860754072666168,0.07504070550203323,-0.054043833166360855,-0.00011787098628701642,-7.118967187125236e-05,-1.44067125802394e-05,-0.0015591236297041178,-0.000649839814286679,-0.00450188759714365,0.041665345430374146,0.043144289404153824,0.0421551838517189,0.04267556965351105
113970.804,154,0.01732291653752327,0.0,0.0,1.0,1,6,-0.23860734701156616,0.07504105567932129,-0.05404353514313698,-2.5143735911115073e-06,-0.00022453769634012133,4.522214294411242e-05,-0.0015639292541891336,-0.0006786438752897084,-0.004498956725001335,0.04192570596933365,0.04301503673195839,0.04224015027284622,0.04267588257789612
113970.908,154,0.01732291653752327,0.0,0.0,1.0,1,6,-0.23860734701156616,0.07504105567932129,-0.05404353514313698,-2.5143735911115073e-06,-0.00022453769634012133,4.522214294411242e-05,-0.0015639292541891336,-0.0006786438752897084,-0.004498956725001335,0.04192570596933365,0.04301503673195839,0.04224015027284622,0.04267588257789612
113986.362,159,0.017278123646974564,0.0,0.0,1.0,1,6,-0.23860739171504974,0.07504095882177353,-0.05404357984662056,-1.2874271305918228e-05,0.0004260971036273986,5.094410516903736e-05,-0.0015539227752014995,-0.0006167039391584694,-0.004496666602790356,0.04186663031578064,0.04302693530917168,0.042132988572120667,0.042751576751470566
114001.809,165,0.017233576625585556,0.0,0.0,1.0,1,6,-0.23860731720924377,0.07504058629274368,-0.05404370278120041,-0.0001734354009386152,0.0001564769772812724,9.02557949302718e-05,-0.0015866138273850083,-0.0005724303191527724,-0.004474991466850042,0.04181092977523804,0.042956601828336716,0.04224234074354172,0.04287939891219139
114001.884,165,0.017233576625585556,0.0,0.0,1.0,1,6,-0.23860731720924377,0.07504058629274368,-0.05404370278120041,-0.0001734354009386152,0.0001564769772812724,9.02557949302718e-05,-0.0015866138273850083,-0.0005724303191527724,-0.004474991466850042,0.04181092977523804,0.042956601828336716,0.04224234074354172,0.04287939891219139
114017.481,170,0.017162885516881943,0.0,0.0,1.0,1,6,-0.23860710859298706,0.0750403180718422,-0.054044172167778015,0.0001321309682680294,0.0003437841369304806,6.67691565467976e-05,-0.0015740307280793786,-0.0005199150764383376,-0.004467068240046501,0.04186611250042915,0.04326208680868149,0.04213935509324074,0.04277230054140091
114033.059,175,0.01713857613503933,0.0,0.0,1.0,1,6,-0.23860713839530945,0.0750402957201004,-0.05404507741332054,-0.00025663073756732047,0.0002949924091808498,1.3488632248481736e-05,-0.0015963184414431453,-0.0004923358210362494,-0.004455895163118839,0.041672710329294205,0.04311621934175491,0.0421258807182312,0.04264885187149048
114033.333,175,0.01713857613503933,0.0,0.0,1.0,1,6,-0.23860713839530945,0.0750402957201004,-0.05404507741332054,-0.00025663073756732047,0.0002949924091808498,1.3488632248481736e-05,-0.0015963184414431453,-0.0004923358210362494,-0.004455895163118839,0.041672710329294205,0.04311621934175491,0.0421258807182312,0.04264885187149048
114048.581,180,0.017141524702310562,0.0,0.0,1.0,1,6,-0.23860707879066467,0.07504016906023026,-0.05404601991176605,2.02767041628249e-05,0.00032246659975498915,-1.2537301699921954e-05,-0.00161548366304487,-0.0004515085311140865,-0.004458350129425526,0.041701655834913254,0.043045926839113235,0.04226354509592056,0.04285834729671478
114048.668,180,0.017141524702310562,0.0,0.0,1.0,1,6,-0.23860707879066467,0.07504016906023026,-0.05404601991176605,2.02767041628249e-05,0.00032246659975498915,-1.2537301699921954e-05,-0.00161548366304487,-0.0004515085311140865,-0.004458350129425526,0.041701655834913254,0.043045926839113235,0.04226354509592056,0.04285834729671478
114064.502,186,0.01715874671936035,0.0,0.0,1.0,1,6,-0.23860664665699005,0.07503976672887802,-0.054047368466854095,0.0002533702354412526,0.0002769280399661511,-7.60412440286018e-05,-0.0015806820010766387,-0.0004256269312463701,-0.004476827569305897,0.04182169958949089,0.043254680931568146,0.042173486202955246,0.042730484157800674
114084.435,192,0.01716720126569271,0.0,0.0,1.0,1,6,-0.23860685527324677,0.0750393494963646,-0.054048024117946625,2.835813575075008e-05,0.00026423868257552385,-1.2067198440490756e-05,-0.0015661694342270494,-0.00038656225660815835,-0.004487037193030119,0.04181363061070442,0.043222080916166306,0.04219428077340126,0.04269273579120636
114084.526,192,0.01716720126569271,0.0,0.0,1.0,1,6,-0.23860685527324677,0.0750393494963646,-0.054048024117946625,2.835813575075008e-05,0.00026423868257552385,-1.2067198440490756e-05,-0.0015661694342270494,-0.00038656225660815835,-0.004487037193030119,0.04181363061070442,0.043222080916166306,0.04219428077340126,0.04269273579120636
114095.140,196,0.01716749742627144,0.0,0.0,1.0,1,6,-0.23860710859298706,0.07503901422023773,-0.05404779687523842,5.707290256395936e-05,8.036178769543767e-05,-3.925729470211081e-05,-0.001556362840346992,-0.0003870098735205829,-0.004491028375923634,0.04186517000198364,0.043110594153404236,0.04233943298459053,0.042752455919981
114110.704,200,0.017164096236228943,0.0,0.0,1.0,1,6,-0.2386072427034378,0.07503855973482132,-0.054047565907239914,-8.271287515526637e-05,-0.00020451931050047278,5.5248660828510765e-06,-0.001556218951009214,-0.00040838660788722336,-0.0044872150756418705,0.0420035757124424,0.042978685349226,0.04234917089343071,0.04262562096118927
114110.796,200,0.017164096236228943,0.0,0.0,1.0,1,6,-0.2386072427034378,0.07503855973482132,-0.054047565907239914,-8.271287515526637e-05,-0.00020451931050047278,5.5248660828510765e-06,-0.001556218951009214,-0.00040838660788722336,-0.0044872150756418705,0.0420035757124424,0.042978685349226,0.04234917089343071,0.04262562096118927
114126.264,205,0.01714942790567875,0.0,0.0,1.0,1,6,-0.2386075258255005,0.07503784447908401,-0.05404719337821007,-6.730734457960352e-05,-0.000451980420621112,3.555290459189564e-05,-0.0015651034191250801,-0.0004595008213073015,-0.004474773071706295,0.04224696755409241,0.04277600347995758,0.04254034534096718,0.04256178438663483
114144.331,211,0.017135579138994217,0.0,0.0,1.0,1,6,-0.2386075258255005,0.07503689080476761,-0.05404628813266754,0.00042169468360953033,-0.0003952643892262131,-1.0933980775007512e-05,-0.0015063219470903277,-0.0005269738612696528,-0.004484414588660002,0.04252990707755089,0.04257901757955551,0.04284906014800072,0.04276563227176666
114144.450,211,0.017135579138994217,0.0,0.0,1.0,1,6,-0.2386075258255005,0.07503689080476761,-0.05404628813266754,0.00042169468360953033,-0.0003952643892262131,-1.0933980775007512e-05,-0.0015063219470903277,-0.0005269738612696528,-0.004484414588660002,0.04252990707755089,0.04257901757955551,0.04284906014800072,0.04276563227176666
114158.116,215,0.017117174342274666,0.0,0.0,1.0,1,6,-0.2386072427034378,0.07503610849380493,-0.05404523015022278,0.000199828646145761,-0.00031648288131691515,0.00010741658479673788,-0.0014720818726345897,-0.0005676005966961384,-0.004480286035686731,0.04263591021299362,0.04247836396098137,0.04277171567082405,0.042643219232559204
114158.250,215,0.017117174342274666,0.0,0.0,1.0,1,6,-0.2386072427034378,0.07503610849380493,-0.05404523015022278,0.000199828646145761,-0.00031648288131691515,0.00010741658479673788,-0.0014720818726345897,-0.0005676005966961384,-0.004480286035686731,0.04263591021299362,0.04247836396098137,0.04277171567082405,0.042643219232559204
114172.474,220,0.01705433428287506,0.0,0.0,1.0,1,6,-0.23860691487789154,0.07503568381071091,-0.05404330790042877,-8.74963661772199e-05,0.00023134842922445387,8.87917194631882e-05,-0.0014797694748267531,-0.0005386293050833046,-0.004465863108634949,0.04225530847907066,0.04268677905201912,0.042742762714624405,0.042538583278656006
114188.010,222,0.017044905573129654,0.0,0.0,1.0,1,6,-0.2386067658662796,0.07503574341535568,-0.05404244735836983,-0.00011852874013129622,0.00023243259056471288,2.5098879632423632e-05,-0.0014869305305182934,-0.0005214513512328267,-0.004464709199965,0.04215240105986595,0.04280257225036621,0.04266410320997238,0.042483460158109665
114188.302,223,0.017044583335518837,0.0,0.0,1.0,1,6,-0.23860669136047363,0.07503577321767807,-0.05404205247759819,-9.538437006995082e-05,0.00036373178591020405,-6.795111744395399e-07,-0.001491877599619329,-0.0005087680765427649,-0.004465029574930668,0.04212093725800514,0.0428420715034008,0.04259749874472618,0.04243907332420349
114203.813,228,0.01714320480823517,0.0,0.0,1.0,1,6,-0.23860704898834229,0.07503622025251389,-0.05404029041528702,-0.00029278264264576137,-0.0001958032516995445,-0.00015103293117135763,-0.0015740505186840892,-0.0004971292801201344,-0.004473452921956778,0.04200451076030731,0.04271223768591881,0.04250088334083557,0.042272210121154785
114219.333,233,0.017239367589354515,0.0,0.0,1.0,1,6,-0.2386072874069214,0.07503614574670792,-0.05403994023799896,0.00012434816744644195,-9.396138921147212e-05,-0.0001671187928877771,-0.0015706679550930858,-0.000506680691614747,-0.004500153940171003,0.04216492176055908,0.04256457835435867,0.04265417531132698,0.0424271896481514
114219.428,233,0.017239367589354515,0.0,0.0,1.0,1,6,-0.2386072874069214,0.07503614574670792,-0.05403994023799896,0.00012434816744644195,-9.396138921147212e-05,-0.0001671187928877771,-0.0015706679550930858,-0.000506680691614747,-0.004500153940171003,0.04216492176055908,0.04256457835435867,0.04265417531132698,0.0424271896481514
114234.708,238,0.01727338880300522,0.0,0.0,1.0,1,6,-0.23860715329647064,0.07503561675548553,-0.05404069274663925,-0.00040207066922448575,4.311496468289988e-06,2.1113686671014875e-05,-0.0016062777722254395,-0.0005023305420763791,-0.004493047017604113,0.04210115596652031,0.04234262555837631,0.04254873842000961,0.04240795969963074
114250.313,243,0.017240066081285477,0.0,0.0,1.0,1,6,-0.23860660195350647,0.0750347450375557,-0.05404147878289223,-7.5242928687657695e-06,0.0003126654482912272,9.809413313632831e-05,-0.0016278235707432032,-0.00048248906387016177,-0.00447385199368,0.042316701263189316,0.04255199059844017,0.042626168578863144,0.042662836611270905
114250.701,243,0.017226651310920715,0.0,0.0,1.0,1,6,-0.23860646784305573,0.07503455132246017,-0.05404168739914894,0.00013145025877747685,-7.846418884582818e-05,0.00011437640932854265,-0.0016204421408474445,-0.000468569400254637,-0.004473085515201092,0.04237587749958038,0.04265255481004715,0.04261748120188713,0.042670462280511856
114266.779,248,0.01716608554124832,0.0,0.0,1.0,1,6,-0.23860614001750946,0.07503390312194824,-0.054042741656303406,0.00032821003696881235,0.00012177293683635071,0.00010792049579322338,-0.0015817504609003663,-0.00045740682980977,-0.004470926243811846,0.042444150894880295,0.042782120406627655,0.042567018419504166,0.04265851899981499
114281.334,253,0.01710651069879532,0.0,0.0,1.0,1,6,-0.2386060655117035,0.07503315806388855,-0.05404350161552429,-4.1005710954777896e-05,-0.0002767786500044167,9.583034989191219e-05,-0.0015722523676231503,-0.000482122297398746,-0.0044541857205331326,0.04243192449212074,0.04254133626818657,0.04261253774166107,0.042611993849277496
114281.428,253,0.01710651069879532,0.0,0.0,1.0,1,6,-0.2386060655117035,0.07503315806388855,-0.05404350161552429,-4.1005710954777896e-05,-0.0002767786500044167,9.583034989191219e-05,-0.0015722523676231503,-0.000482122297398746,-0.0044541857205331326,0.04243192449212074,0.04254133626818657,0.04261253774166107,0.042611993849277496
114296.872,259,0.017056019976735115,0.0,0.0,1.0,1,6,-0.23860611021518707,0.07503264397382736,-0.05404338613152504,0.00026347083621658385,-0.00014735160220880061,1.6452981071779504e-05,-0.0015395268565043807,-0.0005102069117128849,-0.004451397806406021,0.042446400970220566,0.04261906072497368,0.04277961328625679,0.04253864660859108
114312.614,264,0.017078232020139694,0.0,0.0,1.0,1,6,-0.2386060357093811,0.07503283023834229,-0.054043423384428024,-0.00014309048128779978,-2.7465375751489773e-05,-6.461091834353283e-05,-0.0015535337151959538,-0.0005011435132473707,-0.00445734616369009,0.042091257870197296,0.04248713701963425,0.042746104300022125,0.042399778962135315
114312.717,264,0.017078232020139694,0.0,0.0,1.0,1,6,-0.2386060357093811,0.07503283023834229,-0.054043423384428024,-0.00014309048128779978,-2.7465375751489773e-05,-6.461091834353283e-05,-0.0015535337151959538,-0.0005011435132473707,-0.00445734616369009,0.042091257870197296,0.04248713701963425,0.042746104300022125,0.042399778962135315
114328.179,270,0.017140133306384087,0.0,0.0,1.0,1,6,-0.2386055737733841,0.07503283023834229,-0.054043274372816086,6.67433487251401e-05,0.0004596774815581739,-0.00010432850831421092,-0.0015692193992435932,-0.0004526355187408626,-0.0044764322228729725,0.042122818529605865,0.04268850013613701,0.04250194877386093,0.04241584241390228
114328.260,270,0.017140133306384087,0.0,0.0,1.0,1,6,-0.2386055737733841,0.07503283023834229,-0.054043274372816086,6.67433487251401e-05,0.0004596774815581739,-0.00010432850831421092,-0.0015692193992435932,-0.0004526355187408626,-0.0044764322228729725,0.042122818529605865,0.04268850013613701,0.04250194877386093,0.04241584241390228
114343.648,274,0.017196597531437874,0.0,0.0,1.0,1,6,-0.23860548436641693,0.07503264397382736,-0.054043520241975784,-3.1848016078583896e-05,0.0005982925649732351,-0.0001553182228235528,-0.001574579393491149,-0.0004078559868503362,-0.004493322689086199,0.04204435646533966,0.04280354082584381,0.04240905120968819,0.04242585599422455
114359.314,280,0.01723039709031582,0.0,0.0,1.0,1,6,-0.23860549926757812,0.07503235340118408,-0.05404407158493996,-0.0002644717169459909,7.096526678651571e-05,-2.5721963538671844e-05,-0.0016112175071612,-0.0003677589993458241,-0.004493243992328644,0.04192311316728592,0.042726535350084305,0.04246126487851143,0.04248298332095146
114359.435,280,0.01723039709031582,0.0,0.0,1.0,1,6,-0.23860549926757812,0.07503235340118408,-0.05404407158493996,-0.0002644717169459909,7.096526678651571e-05,-2.5721963538671844e-05,-0.0016112175071612,-0.0003677589993458241,-0.004493243992328644,0.04192311316728592,0.042726535350084305,0.04246126487851143,0.04248298332095146
114375.282,285,0.01722390577197075,0.0,0.0,1.0,1,6,-0.23860540986061096,0.07503208518028259,-0.05404477193951607,-9.738887456478551e-06,0.00023127092572394758,2.9851118597434834e-05,-0.001614274107851088,-0.00036340567748993635,-0.004487428814172745,0.0421270988881588,0.04284173622727394,0.042502038180828094,0.04248897358775139
114390.875,290,0.017195213586091995,0.0,0.0,1.0,1,6,-0.23860560357570648,0.07503191381692886,-0.05404570698738098,0.00019028801762033254,0.00032523772097192705,3.920563540305011e-05,-0.0015876871766522527,-0.00033132205135188997,-0.004492674022912979,0.042120568454265594,0.04290783405303955,0.04256822541356087,0.042527105659246445
114391.048,290,0.017195213586091995,0.0,0.0,1.0,1,6,-0.23860560357570648,0.07503191381692886,-0.05404570698738098,0.00019028801762033254,0.00032523772097192705,3.920563540305011e-05,-0.0015876871766522527,-0.00033132205135188997,-0.004492674022912979,0.042120568454265594,0.04290783405303955,0.04256822541356087,0.042527105659246445
114407.119,296,0.01717204786837101,0.0,0.0,1.0,1,6,-0.23860569298267365,0.07503141462802887,-0.05404597520828247,0.0001409315300406888,0.000299603387247771,4.339672886999324e-05,-0.0015642960788682103,-0.000313287804601714,-0.004494154825806618,0.04219441115856171,0.04280688241124153,0.042602092027664185,0.04260828346014023
114422.541,301,0.017152316868305206,0.0,0.0,1.0,1,6,-0.23860570788383484,0.07503090053796768,-0.054045576602220535,0.00013508039410226047,-0.00017116569506470114,1.6188954759854823e-05,-0.0015407090540975332,-0.0003254323673900217,-0.004494893364608288,0.04232415184378624,0.04279336333274841,0.04261692613363266,0.0425502210855484
114422.637,301,0.017152316868305206,0.0,0.0,1.0,1,6,-0.23860570788383484,0.07503090053796768,-0.054045576602220535,0.00013508039410226047,-0.00017116569506470114,1.6188954759854823e-05,-0.0015407090540975332,-0.0003254323673900217,-0.004494893364608288,0.04232415184378624,0.04279336333274841,0.04261692613363266,0.0425502210855484
114438.416,306,0.017124507576227188,0.0,0.0,1.0,1,6,-0.23860588669776917,0.07503020018339157,-0.05404484272003174,-0.00010444199870107695,-0.0001709823845885694,5.6138986110454425e-05,-0.0015420217532664537,-0.000347639579558745,-0.00448518106713891,0.04243401810526848,0.04259372502565384,0.04258134961128235,0.042473576962947845
114438.506,306,0.017124507576227188,0.0,0.0,1.0,1,6,-0.23860588669776917,0.07503020018339157,-0.05404484272003174,-0.00010444199870107695,-0.0001709823845885694,5.6138986110454425e-05,-0.0015420217532664537,-0.000347639579558745,-0.00448518106713891,0.04243401810526848,0.04259372502565384,0.04258134961128235,0.042473576962947845
114453.601,311,0.01710815168917179,0.0,0.0,1.0,1,6,-0.23860615491867065,0.07502933591604233,-0.05404386296868324,-6.101831786509138e-06,-0.000394214759580791,2.6605657694744878e-05,-0.0015464135212823749,-0.00039844223647378385,-0.004475549794733524,0.04262831062078476,0.042425792664289474,0.04279289022088051,0.04254083335399628
114469.192,316,0.017082922160625458,0.0,0.0,1.0,1,6,-0.2386062741279602,0.07502841204404831,-0.054043106734752655,5.866260835318826e-05,-0.00047163054114207625,7.873035065131262e-05,-0.0015260694781318307,-0.00045364387915469706,-0.004468179773539305,0.04271693155169487,0.042246755212545395,0.042904675006866455,0.042480748146772385
114469.300,316,0.017082922160625458,0.0,0.0,1.0,1,6,-0.2386062741279602,0.07502841204404831,-0.054043106734752655,5.866260835318826e-05,-0.00047163054114207625,7.873035065131262e-05,-0.0015260694781318307,-0.00045364387915469706,-0.004468179773539305,0.04271693155169487,0.042246755212545395,0.042904675006866455,0.042480748146772385
114484.664,322,0.017033888027071953,0.0,0.0,1.0,1,6,-0.23860585689544678,0.07502762973308563,-0.05404215678572655,-1.538268588774372e-05,0.00034822081215679646,3.560102777555585e-05,-0.0015379940159618855,-0.00042760043288581073,-0.004454022739082575,0.04247402027249336,0.04241138696670532,0.042908839881420135,0.042563267052173615
114500.312,326,0.017046278342604637,0.0,0.0,1.0,1,6,-0.23860542476177216,0.07502751797437668,-0.05404127389192581,0.00035716366255655885,0.00013278429105412215,-0.00010236151138087735,-0.001506309024989605,-0.00040436116978526115,-0.004473918583244085,0.04242652654647827,0.04276405647397041,0.042814016342163086,0.04247736930847168
114500.398,326,0.017046278342604637,0.0,0.0,1.0,1,6,-0.23860542476177216,0.07502751797437668,-0.05404127389192581,0.00035716366255655885,0.00013278429105412215,-0.00010236151138087735,-0.001506309024989605,-0.00040436116978526115,-0.004473918583244085,0.04242652654647827,0.04276405647397041,0.042814016342163086,0.04247736930847168
114515.940,332,0.017130494117736816,0.0,0.0,1.0,1,6,-0.238605335354805,0.07502804696559906,-0.05403994396328926,-0.0002932681527454406,-0.0002905063738580793,-0.0001400200999341905,-0.001522160368040204,-0.00043634226312860847,-0.004492814652621746,0.042179349809885025,0.042589228600263596,0.042618729174137115,0.04209110513329506
114531.328,337,0.017227906733751297,0.0,0.0,1.0,1,6,-0.23860563337802887,0.07502855360507965,-0.05403868854045868,-0.00021746466518379748,-0.00018927011115010828,-0.00018411838391330093,-0.0015707241836935282,-0.0004467298276722431,-0.004505259916186333,0.04222358390688896,0.0424373522400856,0.04270697012543678,0.04217539727687836
114531.383,337,0.017227906733751297,0.0,0.0,1.0,1,6,-0.23860563337802887,0.07502855360507965,-0.05403868854045868,-0.00021746466518379748,-0.00018927011115010828,-0.00018411838391330093,-0.0015707241836935282,-0.0004467298276722431,-0.004505259916186333,0.04222358390688896,0.0424373522400856,0.04270697012543678,0.04217539727687836
114547.275,342,0.017308605834841728,0.0,0.0,1.0,1,6,-0.23860570788383484,0.07502833753824234,-0.054038241505622864,9.902345482259989e-05,-0.00022661910043098032,-8.392112795263529e-05,-0.0015690209111198783,-0.0004477190668694675,-0.004523356910794973,0.042355556041002274,0.042250726372003555,0.04278753697872162,0.04238821566104889
114562.958,348,0.017304886132478714,0.0,0.0,1.0,1,6,-0.23860526084899902,0.07502755522727966,-0.05403917655348778,-0.0005998460692353547,-0.00013015471631661057,0.0001247405307367444,-0.00165042735170573,-0.00044451371650211513,-0.0044908286072313786,0.04236370697617531,0.04217720031738281,0.0425981730222702,0.04234699159860611
114563.060,348,0.017304886132478714,0.0,0.0,1.0,1,6,-0.23860526084899902,0.07502755522727966,-0.05403917655348778,-0.0005998460692353547,-0.00013015471631661057,0.0001247405307367444,-0.00165042735170573,-0.00044451371650211513,-0.0044908286072313786,0.04236370697617531,0.04217720031738281,0.0425981730222702,0.04234699159860611
114578.597,353,0.017222365364432335,0.0,0.0,1.0,1,6,-0.23860490322113037,0.07502676546573639,-0.05404050648212433,0.0002453946799505502,8.232058462454006e-05,0.00014578047557733953,-0.0016437044832855463,-0.00042904631118290126,-0.004466491285711527,0.042708076536655426,0.042511798441410065,0.042748577892780304,0.04261310026049614
114578.698,353,0.017222365364432335,0.0,0.0,1.0,1,6,-0.23860490322113037,0.07502676546573639,-0.05404050648212433,0.0002453946799505502,8.232058462454006e-05,0.00014578047557733953,-0.0016437044832855463,-0.00042904631118290126,-0.004466491285711527,0.042708076536655426,0.042511798441410065,0.042748577892780304,0.04261310026049614
114594.052,358,0.017139511182904243,0.0,0.0,1.0,1,6,-0.2386048436164856,0.0750257670879364,-0.05404232069849968,0.0002777681511361152,-0.00020386728283483535,0.00012395599333103746,-0.0015845276648178697,-0.00042312208097428083,-0.004464619792997837,0.04273883253335953,0.04237740486860275,0.042676232755184174,0.042626507580280304
114609.965,363,0.01704314909875393,0.0,0.0,1.0,1,6,-0.23860488831996918,0.07502460479736328,-0.05404325947165489,-0.00010057639156002551,-9.201231296174228e-05,0.0002310546115040779,-0.001596903894096613,-0.0004242183349560946,-0.004431523848325014,0.042733561247587204,0.042307112365961075,0.04270369932055473,0.04262712970376015
114610.068,363,0.01704314909875393,0.0,0.0,1.0,1,6,-0.23860488831996918,0.07502460479736328,-0.05404325947165489,-0.00010057639156002551,-9.201231296174228e-05,0.0002310546115040779,-0.001596903894096613,-0.0004242183349560946,-0.004431523848325014,0.042733561247587204,0.042307112365961075,0.04270369932055473,0.04262712970376015
114625.259,368,0.016987964510917664,0.0,0.0,1.0,1,6,-0.2386048585176468,0.07502379268407822,-0.05404392257332802,0.00022672412160318345,0.00010418333113193512,3.130438199150376e-05,-0.0015662260120734572,-0.00040477680158801377,-0.004431925248354673,0.0425633005797863,0.04243144392967224,0.042800117284059525,0.04263440892100334
114640.772,374,0.017008231952786446,0.0,0.0,1.0,1,5,-0.2386045753955841,0.07502345740795135,-0.05404483899474144,-0.00021646673849318177,7.935702342365403e-06,-6.933214172022417e-05,-0.0015937448479235172,-0.0004121061647310853,-0.0044321659952402115,0.042349547147750854,0.04242515191435814,0.042682845145463943,0.04237063601613045
114640.864,374,0.017008231952786446,0.0,0.0,1.0,1,5,-0.2386045753955841,0.07502345740795135,-0.05404483899474144,-0.00021646673849318177,7.935702342365403e-06,-6.933214172022417e-05,-0.0015937448479235172,-0.0004121061647310853,-0.0044321659952402115,0.042349547147750854,0.04242515191435814,0.042682845145463943,0.04237063601613045
114656.217,379,0.017081113532185555,0.0,0.0,1.0,1,5,-0.23860447108745575,0.07502364367246628,-0.054045263677835464,0.00032611589995212853,4.7920741053530946e-05,-0.0002477298548910767,-0.0015640404308214784,-0.0004018004983663559,-0.004468474071472883,0.04225097596645355,0.042623184621334076,0.042812276631593704,0.042417146265506744
114671.762,384,0.017191387712955475,0.0,0.0,1.0,1,5,-0.23860417306423187,0.07502397894859314,-0.05404534935951233,0.00017723013297654688,0.0003380955313332379,-0.00020703565678559244,-0.0015420784475281835,-0.00037246939609758556,-0.004510051105171442,0.04201643913984299,0.042568668723106384,0.04272443428635597,0.042396243661642075
114671.839,384,0.017191387712955475,0.0,0.0,1.0,1,5,-0.23860417306423187,0.07502397894859314,-0.05404534935951233,0.00017723013297654688,0.0003380955313332379,-0.00020703565678559244,-0.0015420784475281835,-0.00037246939609758556,-0.004510051105171442,0.04201643913984299,0.042568668723106384,0.04272443428635597,0.042396243661642075
114687.386,389,0.01727891154587269,0.0,0.0,1.0,1,5,-0.23860369622707367,0.07502409815788269,-0.05404495820403099,-0.00020071837934665382,0.00021086052583996207,-7.2583177825436e-05,-0.0015752553008496761,-0.00034174349275417626,-0.004524144809693098,0.042073361575603485,0.04264935106039047,0.04242618754506111,0.042289890348911285
114703.311,394,0.017310094088315964,0.0,0.0,1.0,1,5,-0.23860375583171844,0.07502381503582001,-0.0540446937084198,-2.2934724256629124e-05,0.0002060479309875518,7.416800599457929e-06,-0.001591330161318183,-0.0003237664932385087,-0.004524948541074991,0.04225027561187744,0.0427093431353569,0.042556505650281906,0.04248437285423279
114703.393,394,0.017310094088315964,0.0,0.0,1.0,1,5,-0.23860375583171844,0.07502381503582001,-0.0540446937084198,-2.2934724256629124e-05,0.0002060479309875518,7.416800599457929e-06,-0.001591330161318183,-0.0003237664932385087,-0.004524948541074991,0.04225027561187744,0.0427093431353569,0.042556505650281906,0.04248437285423279
114718.962,400,0.017273496836423874,0.0,0.0,1.0,1,5,-0.23860402405261993,0.07502351701259613,-0.05404450371861458,4.710101620730711e-06,-0.000378551019821316,9.264626714866608e-05,-0.0015617181779816747,-0.00030647002859041095,-0.0045230030082166195,0.04225841909646988,0.04268937185406685,0.04264464229345322,0.04249277710914612
114719.048,400,0.017273496836423874,0.0,0.0,1.0,1,5,-0.23860402405261993,0.07502351701259613,-0.05404450371861458,4.710101620730711e-06,-0.000378551019821316,9.264626714866608e-05,-0.0015617181779816747,-0.00030647002859041095,-0.0045230030082166195,0.04225841909646988,0.04268937185406685,0.04264464229345322,0.04249277710914612
114734.621,405,0.017214665189385414,0.0,0.0,1.0,1,5,-0.23860427737236023,0.07502340525388718,-0.05404413864016533,-0.00016935780877247453,-0.00034082549973390996,0.00011984507727902383,-0.0015831199707463384,-0.0003220288490410894,-0.00449738185852766,0.04235612973570824,0.04266572371125221,0.04267355799674988,0.04238010197877884
114750.027,410,0.017177220433950424,0.0,0.0,1.0,1,5,-0.23860463500022888,0.07502336800098419,-0.054043762385845184,0.00024365511490032077,-6.260661029955372e-05,4.94373216497479e-06,-0.0015589193208143115,-0.0003346196317579597,-0.004496610723435879,0.042476266622543335,0.04260454699397087,0.042878393083810806,0.04252508282661438
114750.112,410,0.017177220433950424,0.0,0.0,1.0,1,5,-0.23860463500022888,0.07502336800098419,-0.054043762385845184,0.00024365511490032077,-6.260661029955372e-05,4.94373216497479e-06,-0.0015589193208143115,-0.0003346196317579597,-0.004496610723435879,0.042476266622543335,0.04260454699397087,0.042878393083810806,0.04252508282661438
114765.532,415,0.017168914899230003,0.0,0.0,1.0,1,5,-0.23860463500022888,0.07502303272485733,-0.054042987525463104,0.0002639098674990237,-1.8992857803823426e-05,-5.873800091649173e-06,-0.0015160220209509134,-0.0003630438004620373,-0.004506876692175865,0.04258878901600838,0.042431384325027466,0.04287765547633171,0.04252795875072479
114781.175,421,0.01714707352221012,0.0,0.0,1.0,1,5,-0.23860463500022888,0.07502200454473495,-0.05404145270586014,-0.00013051323185209185,-6.348593888105825e-05,7.359415758401155e-05,-0.0015230176504701376,-0.00039473024662584066,-0.004493252374231815,0.0428105853497982,0.042274102568626404,0.0426938459277153,0.04243886470794678
114781.253,421,0.01714707352221012,0.0,0.0,1.0,1,5,-0.23860463500022888,0.07502200454473495,-0.05404145270586014,-0.00013051323185209185,-6.348593888105825e-05,7.359415758401155e-05,-0.0015230176504701376,-0.00039473024662584066,-0.004493252374231815,0.0428105853497982,0.042274102568626404,0.0426938459277153,0.04243886470794678
114797.127,426,0.017090361565351486,0.0,0.0,1.0,1,5,-0.23860469460487366,0.07502100616693497,-0.054040562361478806,-0.0003651167207863182,0.00012833667278755456,0.00011899210949195549,-0.0015587200177833438,-0.000390311615774408,-0.00446476461365819,0.042561713606119156,0.04212231561541557,0.04282677173614502,0.042534928768873215
114812.783,431,0.01705019362270832,0.0,0.0,1.0,1,5,-0.2386043667793274,0.07502052187919617,-0.05404021590948105,-0.00010943966481136158,5.822116509079933e-05,6.477489660028368e-05,-0.0015872028889134526,-0.0003817242686636746,-0.004444893915206194,0.042595233768224716,0.04247753322124481,0.04278162494301796,0.04239675775170326
114812.871,431,0.01705019362270832,0.0,0.0,1.0,1,5,-0.2386043667793274,0.07502052187919617,-0.05404021590948105,-0.00010943966481136158,5.822116509079933e-05,6.477489660028368e-05,-0.0015872028889134526,-0.0003817242686636746,-0.004444893915206194,0.042595233768224716,0.04247753322124481,0.04278162494301796,0.04239675775170326
114828.443,436,0.01706770993769169,0.0,0.0,1.0,1,5,-0.2386043518781662,0.0750206932425499,-0.05404046177864075,0.00029877168708480895,3.502594699966721e-05,-0.00013804443005938083,-0.0015525426715612411,-0.00037742446875199676,-0.004467945545911789,0.04245302826166153,0.042625464498996735,0.04283684864640236,0.04234466701745987
114828.540,436,0.01706770993769169,0.0,0.0,1.0,1,5,-0.2386043518781662,0.0750206932425499,-0.05404046177864075,0.00029877168708480895,3.502594699966721e-05,-0.00013804443005938083,-0.0015525426715612411,-0.00037742446875199676,-0.004467945545911789,0.04245302826166153,0.042625464498996735,0.04283684864640236,0.04234466701745987
114843.808,441,0.0171622596681118,0.0,0.0,1.0,1,5,-0.23860439658164978,0.07502122223377228,-0.05404027923941612,-2.7494659661897458e-05,-0.00035977570223622024,-0.00021265909890644252,-0.0015511468518525362,-0.0004128918517380953,-0.004495964385569096,0.04227399826049805,0.04238064959645271,0.042894147336483,0.04223119467496872
114859.444,446,0.017273839563131332,0.0,0.0,1.0,1,5,-0.2386041283607483,0.07502169907093048,-0.05403944477438927,0.00014320356422103941,-4.1924500692402944e-05,-0.00021051926887594163,-0.0015471139922738075,-0.000450218707555905,-0.00452555064111948,0.04243422672152519,0.04230251908302307,0.04292289540171623,0.04229062795639038
114859.527,447,0.017293818295001984,0.0,0.0,1.0,1,5,-0.23860405385494232,0.07502170652151108,-0.05403926223516464,0.00018912175437435508,-0.00020009897707495838,-0.0002041729458142072,-0.0015423997538164258,-0.0004523937532212585,-0.0045321290381252766,0.04249625653028488,0.04229855164885521,0.04288462549448013,0.04230870306491852
114874.941,452,0.017335522919893265,0.0,0.0,1.0,1,5,-0.23860368132591248,0.07502133399248123,-0.05403893068432808,-0.0003298995434306562,0.0003299324307590723,3.1544695957563818e-06,-0.0015606407541781664,-0.0004456666938494891,-0.004533092025667429,0.04244636371731758,0.04210839048027992,0.04262604936957359,0.04232140630483627
114890.169,457,0.017301157116889954,0.0,0.0,1.0,1,5,-0.23860330879688263,0.07502046227455139,-0.05403885617852211,-0.0004383100022096187,-5.737792162108235e-05,0.00022933981381356716,-0.0016333182575181127,-0.0004249572812113911,-0.00449423398822546,0.042624928057193756,0.042160432785749435,0.04265498369932175,0.04253392294049263
114890.237,457,0.017301157116889954,0.0,0.0,1.0,1,5,-0.23860330879688263,0.07502046227455139,-0.05403885617852211,-0.0004383100022096187,-5.737792162108235e-05,0.00022933981381356716,-0.0016333182575181127,-0.0004249572812113911,-0.00449423398822546,0.042624928057193756,0.042160432785749435,0.04265498369932175,0.04253392294049263
114905.633,462,0.017201285809278488,0.0,0.0,1.0,1,5,-0.2386031597852707,0.0750194787979126,-0.05403948947787285,0.00038222322473302484,0.00011823174281744286,0.00017828487034421414,-0.0015932624228298664,-0.00042405520798638463,-0.004479380790144205,0.04292820766568184,0.04244472086429596,0.04273025318980217,0.0426262766122818
114921.163,467,0.017108537256717682,0.0,0.0,1.0,1,5,-0.23860342800617218,0.07501862943172455,-0.05404084175825119,-0.00032877351623028517,-0.00039569169166497886,0.00020268972730264068,-0.0016075890744104981,-0.00044785154750570655,-0.004440702497959137,0.04278581216931343,0.042106714099645615,0.04268042743206024,0.042457301169633865
114921.216,467,0.017108537256717682,0.0,0.0,1.0,1,5,-0.23860342800617218,0.07501862943172455,-0.05404084175825119,-0.00032877351623028517,-0.00039569169166497886,0.00020268972730264068,-0.0016075890744104981,-0.00044785154750570655,-0.004440702497959137,0.04278581216931343,0.042106714099645615,0.04268042743206024,0.042457301169633865
114937.331,473,0.017005816102027893,0.0,0.0,1.0,1,5,-0.23860353231430054,0.07501779496669769,-0.05404209345579147,0.0001920838694786653,0.00021880815620534122,3.98781085095834e-05,-0.0016134363831952214,-0.00038436587783508003,-0.004421549383550882,0.04260697215795517,0.04232059046626091,0.042860403656959534,0.042709723114967346
114952.385,477,0.017006659880280495,0.0,0.0,1.0,1,5,-0.23860321938991547,0.07501731067895889,-0.054043397307395935,0.00019757388508878648,0.00020826849504373968,-5.952714491286315e-05,-0.0015914535615593195,-0.00035598466638475657,-0.004435439128428698,0.042492035776376724,0.0423932820558548,0.04265075922012329,0.04257938638329506
114952.495,477,0.017006659880280495,0.0,0.0,1.0,1,5,-0.23860321938991547,0.07501731067895889,-0.054043397307395935,0.00019757388508878648,0.00020826849504373968,-5.952714491286315e-05,-0.0015914535615593195,-0.00035598466638475657,-0.004435439128428698,0.042492035776376724,0.0423932820558548,0.04265075922012329,0.04257938638329506
114967.866,483,0.0170518159866333,0.0,0.0,1.0,1,5,-0.23860295116901398,0.07501660287380219,-0.05404495820403099,-3.619299968704581e-05,0.00018775713397189975,-0.000102776444691699,-0.0016138625796884298,-0.00033383260597474873,-0.004444210324436426,0.04244709387421608,0.04253670945763588,0.042540840804576874,0.042470477521419525
114967.953,483,0.0170518159866333,0.0,0.0,1.0,1,5,-0.23860295116901398,0.07501660287380219,-0.05404495820403099,-3.619299968704581e-05,0.00018775713397189975,-0.000102776444691699,-0.0016138625796884298,-0.00033383260597474873,-0.004444210324436426,0.04244709387421608,0.04253670945763588,0.042540840804576874,0.042470477521419525
114983.379,488,0.017104269936680794,0.0,0.0,1.0,1,5,-0.23860307037830353,0.0750163197517395,-0.05404588207602501,0.00032621476566419005,3.6451532650971785e-05,-0.00014662541798315942,-0.0015728496946394444,-0.0003174846642650664,-0.0044778697192668915,0.04226662963628769,0.04261401668190956,0.04271159693598747,0.042492665350437164
114998.983,493,0.0171833373606205,0.0,0.0,1.0,1,5,-0.23860301077365875,0.07501650601625443,-0.0540463849902153,-0.0001322120224358514,-0.0002385431289440021,-0.0001203458959935233,-0.001586956437677145,-0.0003385598538443446,-0.004493335727602243,0.04211703687906265,0.04251597076654434,0.04273884370923042,0.0423269048333168
114999.072,493,0.0171833373606205,0.0,0.0,1.0,1,5,-0.23860301077365875,0.07501650601625443,-0.0540463849902153,-0.0001322120224358514,-0.0002385431289440021,-0.0001203458959935233,-0.001586956437677145,-0.0003385598538443446,-0.004493335727602243,0.04211703687906265,0.04251597076654434,0.04273884370923042,0.0423269048333168
115014.577,498,0.017254145815968513,0.0,0.0,1.0,1,5,-0.23860271275043488,0.07501699030399323,-0.05404643714427948,0.0001772902178345248,-2.8460130124585703e-05,-0.0001588582672411576,-0.0015805914299562573,-0.0003491969546303153,-0.004515806678682566,0.042166151106357574,0.04258646070957184,0.04288056120276451,0.04241224750876427
115030.734,504,0.0173205379396677,0.0,0.0,1.0,1,5,-0.23860208690166473,0.07501739263534546,-0.05404621362686157,0.0001176692676381208,0.00028248841408640146,-7.609821477672085e-05,-0.0015469260979443789,-0.0003486857458483428,-0.004543454851955175,0.042283933609724045,0.042624298483133316,0.04261983931064606,0.0423193983733654
115030.822,504,0.0173205379396677,0.0,0.0,1.0,1,5,-0.23860208690166473,0.07501739263534546,-0.05404621362686157,0.0001176692676381208,0.00028248841408640146,-7.609821477672085e-05,-0.0015469260979443789,-0.0003486857458483428,-0.004543454851955175,0.042283933609724045,0.042624298483133316,0.04261983931064606,0.0423193983733654
115045.712,509,0.017330192029476166,0.0,0.0,1.0,1,5,-0.23860223591327667,0.07501760125160217,-0.05404547229409218,-0.00012162267375970259,0.00014567819016519934,2.7237081667408347e-05,-0.0015611212002113461,-0.0003247753484174609,-0.004542191978543997,0.042322058230638504,0.04273153096437454,0.04258143529295921,0.04230158030986786
115061.251,514,0.01731240190565586,0.0,0.0,1.0,1,5,-0.23860269784927368,0.07501767575740814,-0.054044466465711594,4.596043436322361e-05,-0.00010038064647233114,7.988252764334902e-05,-0.0015580622712150216,-0.00033021761919371784,-0.0045352536253631115,0.04238462075591087,0.042553290724754333,0.04282839968800545,0.04247459024190903
115061.318,514,0.01731240190565586,0.0,0.0,1.0,1,5,-0.23860269784927368,0.07501767575740814,-0.054044466465711594,4.596043436322361e-05,-0.00010038064647233114,7.988252764334902e-05,-0.0015580622712150216,-0.00033021761919371784,-0.0045352536253631115,0.04238462075591087,0.042553290724754333,0.04282839968800545,0.04247459024190903
115077.428,519,0.017277315258979797,0.0,0.0,1.0,1,5,-0.23860293626785278,0.07501769810914993,-0.0540434829890728,4.4293767132330686e-05,-0.00022101290232967585,7.485395326511934e-05,-0.001545950653962791,-0.0003516407741699368,-0.004526991862803698,0.042565394192934036,0.04253078252077103,0.04284992814064026,0.04241453856229782
115092.392,524,0.01723005622625351,0.0,0.0,1.0,1,5,-0.23860310018062592,0.07501731812953949,-0.05404192581772804,0.00037019557203166187,-0.0002011120959650725,7.784520857967436e-05,-0.0015028984053060412,-0.00037056230939924717,-0.00452613178640604,0.04283687844872475,0.04243528097867966,0.04293492063879967,0.04261256009340286
115092.472,524,0.01723005622625351,0.0,0.0,1.0,1,5,-0.23860310018062592,0.07501731812953949,-0.05404192581772804,0.00037019557203166187,-0.0002011120959650725,7.784520857967436e-05,-0.0015028984053060412,-0.00037056230939924717,-0.00452613178640604,0.04283687844872475,0.04243528097867966,0.04293492063879967,0.04261256009340286
115108.039,530,0.017140302807092667,0.0,0.0,1.0,1,5,-0.23860321938991547,0.07501623034477234,-0.05404010787606239,-0.00036825210554525256,0.0002783517702482641,0.00018022525182459503,-0.0015135970897972584,-0.0003760731196962297,-0.004492778331041336,0.04269383102655411,0.0421377457678318,0.04276689141988754,0.042540326714515686
115108.119,530,0.017140302807092667,0.0,0.0,1.0,1,5,-0.23860321938991547,0.07501623034477234,-0.05404010787606239,-0.00036825210554525256,0.0002783517702482641,0.00018022525182459503,-0.0015135970897972584,-0.0003760731196962297,-0.004492778331041336,0.04269383102655411,0.0421377457678318,0.04276689141988754,0.042540326714515686
115123.586,535,0.017059819772839546,0.0,0.0,1.0,1,5,-0.23860296607017517,0.07501547783613205,-0.05403890833258629,-0.0004699968558270484,0.00014735989680048078,0.0001522489619674161,-0.0015798326348885894,-0.00036190313403494656,-0.004450709093362093,0.0426010861992836,0.04223213717341423,0.04273037984967232,0.04250458627939224
115139.128,540,0.017032500356435776,0.0,0.0,1.0,1,5,-0.23860278725624084,0.07501515001058578,-0.05403916537761688,-0.00011635234841378406,-0.00015452491061296314,2.0867488274234347e-05,-0.0016055607702583075,-0.0003668824501801282,-0.004435399081557989,0.04265400394797325,0.04244879633188248,0.04266484081745148,0.0423302948474884
115139.236,540,0.017032500356435776,0.0,0.0,1.0,1,5,-0.23860278725624084,0.07501515001058578,-0.05403916537761688,-0.00011635234841378406,-0.00015452491061296314,2.0867488274234347e-05,-0.0016055607702583075,-0.0003668824501801282,-0.004435399081557989,0.04265400394797325,0.04244879633188248,0.04266484081745148,0.0423302948474884
115154.722,545,0.01707257516682148,0.0,0.0,1.0,1,5,-0.23860301077365875,0.07501522451639175,-0.05403994023799896,0.00027305030380375683,9.666381811257452e-05,-0.00017292100528720766,-0.0015814845683053136,-0.0003521882463246584,-0.004462299402803183,0.04246316850185394,0.04244620352983475,0.04285388067364693,0.04244137555360794
115170.345,550,0.017168236896395683,0.0,0.0,1.0,1,5,-0.2386028915643692,0.07501524686813354,-0.05404035374522209,3.583743091439828e-05,-0.0001972298778127879,-0.00019142661767546088,-0.001572336070239544,-0.0003724837733898312,-0.004492536652833223,0.042414985597133636,0.0422753281891346,0.042807236313819885,0.042354047298431396
115170.511,550,0.017168236896395683,0.0,0.0,1.0,1,5,-0.2386028915643692,0.07501524686813354,-0.05404035374522209,3.583743091439828e-05,-0.0001972298778127879,-0.00019142661767546088,-0.001572336070239544,-0.0003724837733898312,-0.004492536652833223,0.042414985597133636,0.0422753281891346,0.042807236313819885,0.042354047298431396
115185.743,555,0.017264293506741524,0.0,0.0,1.0,1,5,-0.23860260844230652,0.075015127658844,-0.0540403313934803,-6.942117124708602e-06,-0.0004256603424437344,-0.00016405651695095003,-0.0015749111771583557,-0.00042731320718303323,-0.004512101411819458,0.042604513466358185,0.04222346469759941,0.04282001405954361,0.04230427369475365
115201.423,560,0.017297450453042984,0.0,0.0,1.0,1,5,-0.23860229551792145,0.07501494139432907,-0.05404055491089821,-0.0001302973978454247,-0.00022473397257272154,-2.065548142127227e-05,-0.001585885533131659,-0.000461476796772331,-0.004513052757829428,0.04256248474121094,0.04206586256623268,0.04293958470225334,0.04240751639008522
115201.489,560,0.017297450453042984,0.0,0.0,1.0,1,5,-0.23860229551792145,0.07501494139432907,-0.05404055491089821,-0.0001302973978454247,-0.00022473397257272154,-2.065548142127227e-05,-0.001585885533131659,-0.000461476796772331,-0.004513052757829428,0.04256248474121094,0.04206586256623268,0.04293958470225334,0.04240751639008522
115217.560,566,0.017278533428907394,0.0,0.0,1.0,1,5,-0.2386014759540558,0.07501446455717087,-0.054040778428316116,-1.6279591363854706e-05,-0.00017711012333165854,9.127889643423259e-05,-0.0015881407307460904,-0.000470247701741755,-0.0045017036609351635,0.042805254459381104,0.04221795126795769,0.04274076968431473,0.04241689667105675
115217.739,566,0.017278533428907394,0.0,0.0,1.0,1,5,-0.2386014759540558,0.07501446455717087,-0.054040778428316116,-1.6279591363854706e-05,-0.00017711012333165854,9.127889643423259e-05,-0.0015881407307460904,-0.000470247701741755,-0.0045017036609351635,0.042805254459381104,0.04221795126795769,0.04274076968431473,0.04241689667105675
115232.472,571,0.017223119735717773,0.0,0.0,1.0,1,5,-0.23860140144824982,0.0750138983130455,-0.05404118448495865,3.540480975061655e-05,0.00010388519149273634,8.910331962397322e-05,-0.0015812652418389916,-0.00045535186654888093,-0.004488561302423477,0.04287026822566986,0.04231276735663414,0.04269858077168465,0.042475249618291855
115248.209,576,0.017152296379208565,0.0,0.0,1.0,1,5,-0.2386016994714737,0.07501310855150223,-0.05404166132211685,-0.00015629487461410463,0.0002123165177181363,0.00021219527116045356,-0.0015945761697366834,-0.00045027851592749357,-0.004461914766579866,0.04281499236822128,0.04210466146469116,0.04276842623949051,0.04255787283182144
115248.285,576,0.017152296379208565,0.0,0.0,1.0,1,5,-0.2386016994714737,0.07501310855150223,-0.05404166132211685,-0.00015629487461410463,0.0002123165177181363,0.00021219527116045356,-0.0015945761697366834,-0.00045027851592749357,-0.004461914766579866,0.04281499236822128,0.04210466146469116,0.04276842623949051,0.04255787283182144
115263.791,581,0.01708434522151947,0.0,0.0,1.0,1,5,-0.23860174417495728,0.07501260191202164,-0.05404243618249893,-7.412108243443072e-05,0.00021671502327080816,8.061045809881762e-05,-0.0016054543666541576,-0.00041325046913698316,-0.004445082973688841,0.04259083792567253,0.04227661341428757,0.042762041091918945,0.04250059276819229
115279.251,586,0.017059488222002983,0.0,0.0,1.0,1,5,-0.23860159516334534,0.07501224428415298,-0.05404369533061981,-4.88394334752229e-07,0.00039084316813386977,2.9793745852657594e-05,-0.0016168669098988175,-0.0003599677875172347,-0.00443928362801671,0.04249689355492592,0.042404744774103165,0.04267257824540138,0.04257001727819443
115279.352,586,0.017059488222002983,0.0,0.0,1.0,1,5,-0.23860159516334534,0.07501224428415298,-0.05404369533061981,-4.88394334752229e-07,0.00039084316813386977,2.9793745852657594e-05,-0.0016168669098988175,-0.0003599677875172347,-0.00443928362801671,0.04249689355492592,0.042404744774103165,0.04267257824540138,0.04257001727819443
115294.645,591,0.017084049060940742,0.0,0.0,1.0,1,5,-0.2386014759540558,0.07501178234815598,-0.054044850170612335,0.00035203996230848134,0.0001905164826894179,-5.184850670048036e-05,-0.0015780295943841338,-0.000298176339128986,-0.004466945305466652,0.04241807013750076,0.04258783906698227,0.04258972033858299,0.04261429235339165
115310.239,596,0.017123201861977577,0.0,0.0,1.0,1,5,-0.23860140144824982,0.07501131296157837,-0.054045695811510086,-0.00019343290477991104,0.00046005405602045357,-9.652798325987533e-05,-0.0015947347274050117,-0.0002659918391145766,-0.004474167246371508,0.04220198094844818,0.04259728267788887,0.04251278191804886,0.042532335966825485
115310.326,597,0.017126357182860374,0.0,0.0,1.0,1,5,-0.23860137164592743,0.0750112533569336,-0.054045744240283966,-8.393424650421366e-05,-5.655483255395666e-05,-2.2725076632923447e-05,-0.0015963062178343534,-0.00025559551431797445,-0.004476386588066816,0.042209066450595856,0.04264167696237564,0.04253675788640976,0.042541734874248505
115326.247,602,0.01716727204620838,0.0,0.0,1.0,1,5,-0.23860126733779907,0.07501108199357986,-0.05404609069228172,0.00014926513540558517,2.539781235100236e-06,-9.675703040556982e-05,-0.0015829465119168162,-0.00024751765886321664,-0.004494030028581619,0.04217960312962532,0.042714301496744156,0.04264562204480171,0.04254582151770592
